Orbital pass data/90d_lat78.txt

Satellite passes / Orbitron 3.71 / www.stoff.pl

Location      : Picked Site (15.5400° E, 78.2000° N)
Time zone     : UTC +2:00
Search period : 2023-06-08 11:43:26 - 90 days
                2023-09-06 11:43:26
Conditions    : Maximum sun elevation = None
                Minimum sat elevation = 5 deg
                Illumination NOT required

Time                Satellite              Azm  Elv  Mag Range S.Azm S.Elv
--------------------------------------------------------------------------
2023-06-08 18:51:02 #01111                33.3  5.0    ?  1541 273.5  22.7
2023-06-08 18:53:12 #01111                74.3  9.9    ?  1193 274.0  22.6
2023-06-08 18:55:22 #01111               115.6  5.0    ?  1532 274.6  22.5

2023-06-08 20:20:35 #01111                30.3  5.0    ?  1541 295.0  18.3
2023-06-08 20:23:37 #01111                96.6 23.3    ?   702 295.7  18.2
2023-06-08 20:26:38 #01111               163.1  5.0    ?  1530 296.4  18.0

2023-06-08 21:50:17 #01111                32.8  5.1    ?  1538 316.2  14.6
2023-06-08 21:53:35 #01111               118.0 66.4    ?   335 317.0  14.5
2023-06-08 21:56:52 #01111               204.5  5.0    ?  1527 317.7  14.4

2023-06-08 23:19:55 #01111                39.4  5.0    ?  1541 337.2  12.1
2023-06-08 23:23:10 #01111               321.1 47.3    ?   412 338.0  12.1
2023-06-08 23:26:24 #01111               241.6  5.1    ?  1528 338.7  12.0

2023-06-09 00:49:23 #01111                51.6  5.0    ?  1543 358.2  11.2
2023-06-09 00:52:29 #01111               342.5 28.2    ?   609 358.9  11.2
2023-06-09 00:55:34 #01111               273.2  5.1    ?  1532 359.7  11.2

2023-06-09 02:18:38 #01111                71.0  5.1    ?  1537  19.2  11.9
2023-06-09 02:21:40 #01111                 4.5 25.3    ?   662  19.9  11.9
2023-06-09 02:24:43 #01111               297.4  5.0    ?  1540  20.6  12.0

2023-06-09 03:47:44 #01111                98.4  5.0    ?  1538  40.1  14.1
2023-06-09 03:50:53 #01111                26.4 32.7    ?   544  40.8  14.2
2023-06-09 03:54:02 #01111               314.0  5.1    ?  1536  41.6  14.3

2023-06-09 05:17:00 #01111               132.3  5.0    ?  1536  61.1  17.6
2023-06-09 05:20:17 #01111                49.5 66.4    ?   336  61.9  17.7
2023-06-09 05:23:35 #01111               323.7  5.1    ?  1537  62.7  17.9

2023-06-09 06:46:46 #01111               170.9  5.0    ?  1537  82.6  21.9
2023-06-09 06:50:01 #01111               250.0 42.8    ?   443  83.4  22.1
2023-06-09 06:53:16 #01111               328.7  5.1    ?  1540  84.2  22.2

2023-06-09 08:17:22 #01111               214.3  5.1    ?  1535 104.9  26.5
2023-06-09 08:20:09 #01111               271.9 16.7    ?   891 105.6  26.6
2023-06-09 08:22:57 #01111               329.5  5.0    ?  1544 106.3  26.8

2023-06-09 09:49:11 #01111               266.2  5.0    ?  1542 128.5  30.7
2023-06-09 09:50:44 #01111               294.2  7.1    ?  1380 128.9  30.7
2023-06-09 09:52:17 #01111               322.2  5.0    ?  1543 129.3  30.8

2023-06-09 18:56:04 #01111                32.8  5.0    ?  1543 274.7  22.5
2023-06-09 18:58:19 #01111                75.6 10.4    ?  1165 275.2  22.4
2023-06-09 19:00:33 #01111               118.5  5.0    ?  1532 275.8  22.3

2023-06-09 20:25:38 #01111                30.3  5.0    ?  1544 296.2  18.2
2023-06-09 20:28:42 #01111                97.7 24.5    ?   675 296.9  18.0
2023-06-09 20:31:44 #01111               165.5  5.1    ?  1524 297.6  17.9

2023-06-09 21:55:20 #01111                33.0  5.0    ?  1542 317.3  14.5
2023-06-09 21:58:39 #01111               120.2 70.6    ?   325 318.1  14.4
2023-06-09 22:01:56 #01111               206.7  5.0    ?  1528 318.9  14.3

2023-06-09 23:24:58 #01111                40.0  5.0    ?  1542 338.4  12.1
2023-06-09 23:28:13 #01111               321.7 45.3    ?   425 339.1  12.1
2023-06-09 23:31:26 #01111               243.5  5.1    ?  1527 339.9  12.0

2023-06-10 00:54:26 #01111                52.4  5.1    ?  1538 359.4  11.3
2023-06-10 00:57:31 #01111               343.7 27.7    ?   616   0.1  11.2
2023-06-10 01:00:36 #01111               274.7  5.0    ?  1536   0.8  11.3

2023-06-10 02:23:39 #01111                72.4  5.0    ?  1541  20.3  12.0
2023-06-10 02:26:42 #01111                 5.5 25.4    ?   660  21.0  12.1
2023-06-10 02:29:44 #01111               298.7  5.1    ?  1534  21.7  12.1

2023-06-10 03:52:46 #01111               100.2  5.1    ?  1536  41.2  14.3
2023-06-10 03:55:55 #01111                27.7 33.5    ?   533  41.9  14.4
2023-06-10 03:59:05 #01111               314.6  5.0    ?  1538  42.7  14.5

2023-06-10 05:22:03 #01111               134.3  5.1    ?  1534  62.2  17.9
2023-06-10 05:25:20 #01111                51.2 70.0    ?   328  63.0  18.0
2023-06-10 05:28:39 #01111               324.1  5.0    ?  1542  63.8  18.2

2023-06-10 06:51:51 #01111               173.2  5.0    ?  1538  83.7  22.2
2023-06-10 06:55:05 #01111               250.9 40.3    ?   464  84.5  22.4
2023-06-10 06:58:20 #01111               328.9  5.0    ?  1543  85.3  22.6

2023-06-10 08:22:30 #01111               216.8  5.0    ?  1537 106.1  26.8
2023-06-10 08:25:15 #01111               273.3 15.9    ?   918 106.8  27.0
2023-06-10 08:28:00 #01111               329.3  5.0    ?  1543 107.5  27.1

2023-06-10 09:54:26 #01111               269.9  5.0    ?  1541 129.8  31.0
2023-06-10 09:55:51 #01111               295.4  6.7    ?  1406 130.2  31.0
2023-06-10 09:57:17 #01111               321.2  5.0    ?  1543 130.6  31.1

2023-06-10 19:01:07 #01111                32.5  5.0    ?  1540 275.9  22.4
2023-06-10 19:03:25 #01111                76.7 10.9    ?  1138 276.4  22.2
2023-06-10 19:05:43 #01111               121.3  5.0    ?  1529 277.0  22.1

2023-06-10 20:30:42 #01111                30.4  5.0    ?  1540 297.3  18.0
2023-06-10 20:33:47 #01111                99.0 25.7    ?   649 298.1  17.9
2023-06-10 20:36:50 #01111               167.9  5.1    ?  1521 298.8  17.7

2023-06-10 22:00:24 #01111                33.3  5.1    ?  1537 318.5  14.4
2023-06-10 22:03:42 #01111               118.7 75.1    ?   318 319.3  14.3
2023-06-10 22:06:59 #01111               208.9  5.1    ?  1523 320.0  14.2

2023-06-10 23:30:01 #01111                40.5  5.0    ?  1542 339.5  12.1
2023-06-10 23:33:15 #01111               323.5 43.5    ?   437 340.3  12.0
2023-06-10 23:36:28 #01111               245.4  5.0    ?  1528 341.0  12.0

2023-06-11 00:59:28 #01111                53.4  5.1    ?  1539   0.5  11.3
2023-06-11 01:02:33 #01111               344.7 27.3    ?   623   1.2  11.3
2023-06-11 01:05:37 #01111               276.3  5.0    ?  1533   1.9  11.3

2023-06-11 02:28:41 #01111                73.7  5.1    ?  1538  21.4  12.2
2023-06-11 02:31:44 #01111                 6.5 25.5    ?   657  22.1  12.2
2023-06-11 02:34:46 #01111               299.8  5.0    ?  1536  22.8  12.3

2023-06-11 03:57:47 #01111               102.0  5.0    ?  1539  42.3  14.6
2023-06-11 04:00:57 #01111                29.0 34.5    ?   522  43.1  14.7
2023-06-11 04:04:07 #01111               315.4  5.1    ?  1534  43.8  14.8

2023-06-11 05:27:06 #01111               136.4  5.1    ?  1532  63.4  18.2
2023-06-11 05:30:23 #01111                52.8 73.9    ?   321  64.2  18.3
2023-06-11 05:33:42 #01111               324.5  5.0    ?  1540  64.9  18.5

2023-06-11 06:56:56 #01111               175.5  5.0    ?  1538  84.9  22.6
2023-06-11 07:00:09 #01111               251.8 37.9    ?   485  85.7  22.7
2023-06-11 07:03:23 #01111               329.0  5.0    ?  1540  86.5  22.9

2023-06-11 08:27:39 #01111               219.6  5.1    ?  1534 107.3  27.1
2023-06-11 08:30:20 #01111               274.1 15.2    ?   946 108.0  27.3
2023-06-11 08:33:02 #01111               329.0  5.1    ?  1537 108.7  27.4

2023-06-11 09:59:41 #01111               273.7  5.0    ?  1542 131.1  31.2
2023-06-11 10:00:59 #01111               296.9  6.4    ?  1432 131.5  31.3
2023-06-11 10:02:16 #01111               319.8  5.0    ?  1543 131.8  31.3

2023-06-11 19:06:10 #01111                32.3  5.1    ?  1537 277.1  22.2
2023-06-11 19:08:32 #01111                78.3 11.4    ?  1110 277.7  22.1
2023-06-11 19:10:53 #01111               124.1  5.0    ?  1528 278.2  21.9

2023-06-11 20:35:45 #01111                30.4  5.0    ?  1542 298.5  17.9
2023-06-11 20:38:52 #01111               100.5 27.1    ?   624 299.2  17.7
2023-06-11 20:41:56 #01111               170.3  5.1    ?  1520 300.0  17.6

2023-06-11 22:05:27 #01111                33.6  5.0    ?  1539 319.6  14.3
2023-06-11 22:08:46 #01111               124.3 79.7    ?   312 320.4  14.2
2023-06-11 22:12:02 #01111               211.1  5.1    ?  1520 321.2  14.1

2023-06-11 23:35:04 #01111                41.0  5.0    ?  1540 340.7  12.1
2023-06-11 23:38:18 #01111               323.7 41.8    ?   449 341.4  12.0
2023-06-11 23:41:30 #01111               247.3  5.0    ?  1530 342.2  12.0

2023-06-12 01:04:30 #01111                54.3  5.0    ?  1539   1.6  11.4
2023-06-12 01:07:34 #01111               346.5 26.9    ?   629   2.3  11.4
2023-06-12 01:10:38 #01111               277.8  5.0    ?  1531   3.1  11.4

2023-06-12 02:33:42 #01111                75.2  5.0    ?  1540  22.5  12.3
2023-06-12 02:36:45 #01111                 8.1 25.6    ?   654  23.3  12.4
2023-06-12 02:39:48 #01111               300.8  5.0    ?  1537  24.0  12.5

2023-06-12 04:02:49 #01111               103.7  5.1    ?  1535  43.4  14.8
2023-06-12 04:05:59 #01111                30.3 35.5    ?   510  44.2  14.9
2023-06-12 04:09:10 #01111               316.0  5.0    ?  1537  44.9  15.0

2023-06-12 05:32:08 #01111               138.5  5.0    ?  1538  64.5  18.5
2023-06-12 05:35:26 #01111                54.3 78.1    ?   315  65.3  18.6
2023-06-12 05:38:45 #01111               324.9  5.0    ?  1540  66.1  18.8

2023-06-12 07:02:02 #01111               177.9  5.1    ?  1532  86.1  22.9
2023-06-12 07:05:14 #01111               253.9 35.7    ?   507  86.9  23.0
2023-06-12 07:08:26 #01111               329.1  5.0    ?  1538  87.6  23.2

2023-06-12 08:32:47 #01111               222.1  5.0    ?  1537 108.6  27.4
2023-06-12 08:35:26 #01111               275.5 14.4    ?   974 109.2  27.6
2023-06-12 08:38:05 #01111               328.9  5.0    ?  1538 109.9  27.7

2023-06-12 10:04:58 #01111               278.0  5.0    ?  1541 132.5  31.5
2023-06-12 10:06:06 #01111               298.1  6.1    ?  1457 132.8  31.5
2023-06-12 10:07:14 #01111               318.2  5.0    ?  1543 133.1  31.6

2023-06-12 19:11:12 #01111                32.0  5.0    ?  1538 278.3  22.0
2023-06-12 19:13:38 #01111                79.5 11.9    ?  1082 278.9  21.9
2023-06-12 19:16:02 #01111               126.8  5.0    ?  1524 279.4  21.8

2023-06-12 20:40:49 #01111                30.6  5.1    ?  1536 299.7  17.7
2023-06-12 20:43:56 #01111               101.3 28.6    ?   598 300.4  17.6
2023-06-12 20:47:02 #01111               172.7  5.0    ?  1521 301.1  17.4

2023-06-12 22:10:30 #01111                33.9  5.0    ?  1540 320.8  14.2
2023-06-12 22:13:49 #01111               125.2 84.3    ?   308 321.6  14.1
2023-06-12 22:17:05 #01111               213.2  5.1    ?  1519 322.3  14.0

2023-06-12 23:40:07 #01111                41.6  5.1    ?  1537 341.8  12.1
2023-06-12 23:43:20 #01111               325.1 40.2    ?   462 342.6  12.0
2023-06-12 23:46:31 #01111               249.2  5.0    ?  1526 343.3  12.0

2023-06-13 01:09:32 #01111                55.2  5.0    ?  1538   2.8  11.5
2023-06-13 01:12:36 #01111               347.3 26.6    ?   635   3.5  11.5
2023-06-13 01:15:39 #01111               279.3  5.0    ?  1531   4.2  11.5

2023-06-13 02:38:43 #01111                76.6  5.0    ?  1541  23.7  12.5
2023-06-13 02:41:47 #01111                 8.9 25.8    ?   650  24.4  12.6
2023-06-13 02:44:49 #01111               301.9  5.0    ?  1533  25.1  12.6

2023-06-13 04:07:50 #01111               105.5  5.0    ?  1538  44.6  15.0
2023-06-13 04:11:01 #01111                31.4 36.5    ?   498  45.3  15.2
2023-06-13 04:14:12 #01111               316.7  5.1    ?  1534  46.1  15.3

2023-06-13 05:37:11 #01111               140.6  5.0    ?  1536  65.6  18.8
2023-06-13 05:40:29 #01111                55.6 82.4    ?   311  66.4  18.9
2023-06-13 05:43:48 #01111               325.2  5.0    ?  1539  67.2  19.1

2023-06-13 07:07:07 #01111               180.3  5.1    ?  1534  87.3  23.2
2023-06-13 07:10:18 #01111               255.0 33.7    ?   530  88.0  23.4
2023-06-13 07:13:29 #01111               329.2  5.0    ?  1537  88.8  23.5

2023-06-13 08:37:56 #01111               224.8  5.0    ?  1535 109.8  27.7
2023-06-13 08:40:32 #01111               276.9 13.8    ?  1002 110.5  27.9
2023-06-13 08:43:08 #01111               328.8  5.0    ?  1541 111.1  28.0

2023-06-13 10:10:16 #01111               282.6  5.0    ?  1541 133.8  31.7
2023-06-13 10:11:13 #01111               299.3  5.7    ?  1482 134.1  31.8
2023-06-13 10:12:10 #01111               316.1  5.0    ?  1541 134.3  31.8

2023-06-13 19:16:15 #01111                31.8  5.1    ?  1535 279.4  21.8
2023-06-13 19:18:43 #01111                80.4 12.5    ?  1054 280.0  21.7
2023-06-13 19:21:11 #01111               129.5  5.0    ?  1522 280.6  21.6

2023-06-13 20:45:52 #01111                30.6  5.1    ?  1536 300.8  17.6
2023-06-13 20:49:01 #01111               103.1 30.1    ?   573 301.6  17.4
2023-06-13 20:52:07 #01111               175.0  5.1    ?  1517 302.3  17.3

2023-06-13 22:15:33 #01111                34.2  5.0    ?  1539 321.9  14.2
2023-06-13 22:18:52 #01111               139.0 88.9    ?   306 322.7  14.0
2023-06-13 22:22:08 #01111               215.4  5.1    ?  1519 323.5  13.9

2023-06-13 23:45:09 #01111                42.2  5.0    ?  1541 342.9  12.1
2023-06-13 23:48:22 #01111               326.2 38.8    ?   474 343.7  12.0
2023-06-13 23:51:32 #01111               251.1  5.1    ?  1523 344.4  12.0

2023-06-14 01:14:34 #01111                56.2  5.1    ?  1536   3.9  11.5
2023-06-14 01:17:37 #01111               348.8 26.2    ?   640   4.6  11.6
2023-06-14 01:20:40 #01111               280.8  5.0    ?  1531   5.3  11.6

2023-06-14 02:43:45 #01111                77.9  5.1    ?  1535  24.8  12.7
2023-06-14 02:46:48 #01111                10.4 26.0    ?   645  25.5  12.7
2023-06-14 02:49:50 #01111               303.0  5.1    ?  1529  26.2  12.8

2023-06-14 04:12:52 #01111               107.3  5.1    ?  1533  45.7  15.3
2023-06-14 04:16:03 #01111                32.4 37.7    ?   486  46.4  15.4
2023-06-14 04:19:14 #01111               317.3  5.1    ?  1531  47.2  15.5

2023-06-14 05:42:14 #01111               142.7  5.1    ?  1534  66.8  19.0
2023-06-14 05:45:32 #01111                55.4 86.9    ?   309  67.6  19.2
2023-06-14 05:48:50 #01111               325.5  5.1    ?  1533  68.4  19.3

2023-06-14 07:12:12 #01111               182.6  5.0    ?  1535  88.4  23.5
2023-06-14 07:15:22 #01111               256.1 31.9    ?   553  89.2  23.7
2023-06-14 07:18:32 #01111               329.3  5.0    ?  1537  90.0  23.8

2023-06-14 08:43:05 #01111               227.6  5.0    ?  1534 111.1  28.0
2023-06-14 08:45:37 #01111               277.9 13.1    ?  1029 111.7  28.2
2023-06-14 08:48:10 #01111               328.5  5.0    ?  1538 112.3  28.3

2023-06-14 10:15:37 #01111               288.0  5.0    ?  1540 135.2  32.0
2023-06-14 10:16:20 #01111               300.6  5.4    ?  1507 135.4  32.0
2023-06-14 10:17:03 #01111               313.2  5.0    ?  1540 135.6  32.0

2023-06-14 17:52:26 #01111                47.5  5.0    ?  1535 258.9  26.1
2023-06-14 17:53:06 #01111                59.2  5.4    ?  1504 259.0  26.1
2023-06-14 17:53:46 #01111                71.0  5.0    ?  1531 259.2  26.1

2023-06-14 19:21:17 #01111                31.5  5.0    ?  1536 280.6  21.6
2023-06-14 19:23:49 #01111                81.8 13.1    ?  1026 281.2  21.5
2023-06-14 19:26:20 #01111               132.3  5.0    ?  1522 281.8  21.4

2023-06-14 20:50:55 #01111                30.7  5.0    ?  1535 302.0  17.4
2023-06-14 20:54:05 #01111               104.3 31.8    ?   549 302.7  17.3
2023-06-14 20:57:12 #01111               177.4  5.1    ?  1515 303.5  17.1

2023-06-14 22:20:36 #01111                34.5  5.0    ?  1538 323.1  14.1
2023-06-14 22:23:55 #01111               296.0 86.4    ?   306 323.9  14.0
2023-06-14 22:27:11 #01111               217.5  5.0    ?  1522 324.6  13.9

2023-06-14 23:50:12 #01111                42.8  5.1    ?  1536 344.1  12.0
2023-06-14 23:53:23 #01111               328.3 37.4    ?   486 344.8  12.0
2023-06-14 23:56:33 #01111               253.0  5.0    ?  1522 345.6  12.0

2023-06-15 01:19:35 #01111                57.3  5.0    ?  1540   5.0  11.6
2023-06-15 01:22:38 #01111               350.2 25.9    ?   645   5.7  11.6
2023-06-15 01:25:40 #01111               282.4  5.1    ?  1524   6.4  11.6

2023-06-15 02:48:46 #01111                79.4  5.1    ?  1534  25.9  12.8
2023-06-15 02:51:49 #01111                11.7 26.3    ?   640  26.6  12.9
2023-06-15 02:54:52 #01111               304.0  5.0    ?  1532  27.3  13.0

2023-06-15 04:17:53 #01111               109.2  5.1    ?  1534  46.8  15.5
2023-06-15 04:21:05 #01111                33.4 39.0    ?   473  47.6  15.6
2023-06-15 04:24:16 #01111               318.0  5.1    ?  1529  48.3  15.7

2023-06-15 05:47:17 #01111               144.8  5.1    ?  1531  67.9  19.3
2023-06-15 05:50:35 #01111               246.7 88.5    ?   308  68.7  19.5
2023-06-15 05:53:53 #01111               325.9  5.0    ?  1534  69.5  19.6

2023-06-15 07:17:18 #01111               185.0  5.1    ?  1530  89.6  23.8
2023-06-15 07:20:26 #01111               257.2 30.1    ?   577  90.4  23.9
2023-06-15 07:23:34 #01111               329.3  5.1    ?  1531  91.1  24.1

2023-06-15 08:48:14 #01111               230.3  5.0    ?  1534 112.3  28.3
2023-06-15 08:50:43 #01111               279.3 12.5    ?  1057 112.9  28.4
2023-06-15 08:53:12 #01111               328.2  5.0    ?  1537 113.6  28.5

2023-06-15 17:57:20 #01111                44.9  5.0    ?  1532 260.0  25.9
2023-06-15 17:58:13 #01111                60.5  5.6    ?  1479 260.3  25.9
2023-06-15 17:59:06 #01111                76.2  5.0    ?  1528 260.5  25.8

2023-06-15 19:26:20 #01111                31.5  5.1    ?  1531 281.8  21.4
2023-06-15 19:28:54 #01111                82.9 13.7    ?   998 282.4  21.3
2023-06-15 19:31:28 #01111               134.9  5.0    ?  1518 283.0  21.2

2023-06-15 20:55:58 #01111                30.9  5.0    ?  1534 303.1  17.2
2023-06-15 20:59:09 #01111               105.7 33.6    ?   525 303.9  17.1
2023-06-15 21:02:17 #01111               179.8  5.0    ?  1515 304.6  17.0

2023-06-15 22:25:39 #01111                34.8  5.0    ?  1536 324.2  13.9
2023-06-15 22:28:57 #01111               308.4 81.9    ?   308 325.0  13.9
2023-06-15 22:32:13 #01111               219.6  5.0    ?  1518 325.8  13.8

2023-06-15 23:55:14 #01111                43.4  5.0    ?  1537 345.2  12.0
2023-06-15 23:58:25 #01111               329.0 36.2    ?   498 345.9  12.0
2023-06-16 00:01:34 #01111               254.8  5.0    ?  1522 346.7  11.9

2023-06-16 01:24:37 #01111                58.2  5.0    ?  1535   6.1  11.7
2023-06-16 01:27:40 #01111               350.7 25.7    ?   649   6.9  11.7
2023-06-16 01:30:41 #01111               283.8  5.0    ?  1526   7.6  11.7

2023-06-16 02:53:47 #01111                80.8  5.1    ?  1533  27.0  13.0
2023-06-16 02:56:50 #01111                13.0 26.5    ?   634  27.7  13.0
2023-06-16 02:59:53 #01111               305.0  5.0    ?  1529  28.5  13.1

2023-06-16 04:22:54 #01111               111.0  5.0    ?  1535  47.9  15.7
2023-06-16 04:26:07 #01111                34.2 40.4    ?   461  48.7  15.8
2023-06-16 04:29:18 #01111               318.5  5.1    ?  1527  49.4  16.0

2023-06-16 05:52:20 #01111               147.0  5.1    ?  1529  69.1  19.6
2023-06-16 05:55:37 #01111               230.0 83.8    ?   309  69.8  19.7
2023-06-16 05:58:55 #01111               326.2  5.1    ?  1529  70.6  19.9

2023-06-16 07:22:23 #01111               187.4  5.0    ?  1532  90.8  24.1
2023-06-16 07:25:30 #01111               258.4 28.5    ?   601  91.6  24.2
2023-06-16 07:28:37 #01111               329.4  5.0    ?  1533  92.3  24.4

2023-06-16 08:53:23 #01111               233.1  5.0    ?  1534 113.6  28.6
2023-06-16 08:55:48 #01111               280.4 11.9    ?  1085 114.2  28.7
2023-06-16 08:58:14 #01111               328.0  5.0    ?  1537 114.8  28.8

2023-06-16 18:02:16 #01111                42.8  5.0    ?  1531 261.2  25.7
2023-06-16 18:03:20 #01111                61.9  5.9    ?  1453 261.5  25.7
2023-06-16 18:04:23 #01111                80.7  5.0    ?  1525 261.8  25.6

2023-06-16 19:31:22 #01111                31.2  5.0    ?  1532 283.0  21.2
2023-06-16 19:34:00 #01111                84.5 14.3    ?   969 283.6  21.1
2023-06-16 19:36:36 #01111               137.6  5.0    ?  1517 284.2  21.0

2023-06-16 21:01:01 #01111                31.0  5.1    ?  1531 304.3  17.1
2023-06-16 21:04:12 #01111               106.2 35.6    ?   502 305.0  16.9
2023-06-16 21:07:21 #01111               182.1  5.1    ?  1511 305.8  16.8

2023-06-16 22:30:42 #01111                35.2  5.1    ?  1532 325.4  13.8
2023-06-16 22:33:59 #01111               311.6 77.5    ?   312 326.1  13.7
2023-06-16 22:37:15 #01111               221.7  5.0    ?  1517 326.9  13.7

2023-06-17 00:00:16 #01111                44.1  5.0    ?  1536 346.3  12.0
2023-06-17 00:03:26 #01111               330.7 35.1    ?   509 347.1  12.0
2023-06-17 00:06:34 #01111               256.7  5.1    ?  1516 347.8  11.9

2023-06-17 01:29:38 #01111                59.3  5.0    ?  1536   7.3  11.7
2023-06-17 01:32:40 #01111               352.6 25.4    ?   653   8.0  11.8
2023-06-17 01:35:41 #01111               285.3  5.1    ?  1521   8.7  11.8

2023-06-17 02:58:47 #01111                82.4  5.0    ?  1537  28.1  13.1
2023-06-17 03:01:51 #01111                14.3 26.8    ?   628  28.9  13.2
2023-06-17 03:04:54 #01111               306.0  5.0    ?  1527  29.6  13.3

2023-06-17 04:27:55 #01111               112.9  5.0    ?  1536  49.0  15.9
2023-06-17 04:31:08 #01111                36.1 41.9    ?   448  49.8  16.1
2023-06-17 04:34:20 #01111               319.1  5.1    ?  1526  50.6  16.2

2023-06-17 05:57:22 #01111               149.1  5.0    ?  1534  70.2  19.8
2023-06-17 06:00:40 #01111               236.8 79.2    ?   312  71.0  20.0
2023-06-17 06:03:58 #01111               326.5  5.0    ?  1532  71.8  20.2

2023-06-17 07:27:28 #01111               189.7  5.0    ?  1535  92.0  24.4
2023-06-17 07:30:34 #01111               259.7 27.0    ?   626  92.7  24.5
2023-06-17 07:33:39 #01111               329.4  5.1    ?  1529  93.5  24.7

2023-06-17 08:58:32 #01111               235.8  5.0    ?  1536 114.8  28.9
2023-06-17 09:00:54 #01111               281.8 11.4    ?  1112 115.4  29.0
2023-06-17 09:03:15 #01111               327.5  5.0    ?  1533 116.0  29.1

2023-06-17 18:07:13 #01111                41.1  5.0    ?  1531 262.4  25.5
2023-06-17 18:08:26 #01111                63.0  6.2    ?  1428 262.7  25.5
2023-06-17 18:09:39 #01111                85.0  5.0    ?  1523 263.0  25.4

2023-06-17 19:36:24 #01111                31.1  5.0    ?  1533 284.1  21.0
2023-06-17 19:39:05 #01111                85.8 14.9    ?   941 284.8  20.9
2023-06-17 19:41:43 #01111               140.1  5.1    ?  1512 285.4  20.7

2023-06-17 21:06:04 #01111                31.2  5.1    ?  1528 305.4  16.9
2023-06-17 21:09:16 #01111               108.0 37.7    ?   480 306.2  16.8
2023-06-17 21:12:25 #01111               184.4  5.1    ?  1508 306.9  16.6

2023-06-17 22:35:44 #01111                35.5  5.0    ?  1535 326.5  13.7
2023-06-17 22:39:02 #01111               307.9 73.3    ?   317 327.3  13.6
2023-06-17 22:42:16 #01111               223.8  5.1    ?  1510 328.0  13.6

2023-06-18 00:05:18 #01111                44.7  5.0    ?  1535 347.5  12.0
2023-06-18 00:08:28 #01111               331.1 34.0    ?   521 348.2  11.9
2023-06-18 00:11:35 #01111               258.4  5.0    ?  1518 348.9  11.9

2023-06-18 01:34:39 #01111                60.4  5.0    ?  1536   8.4  11.8
2023-06-18 01:37:41 #01111               353.7 25.2    ?   656   9.1  11.8
2023-06-18 01:40:42 #01111               286.6  5.0    ?  1524   9.8  11.9

2023-06-18 03:03:48 #01111                83.9  5.0    ?  1534  29.3  13.3
2023-06-18 03:06:52 #01111                15.4 27.2    ?   621  30.0  13.3
2023-06-18 03:09:55 #01111               306.9  5.0    ?  1525  30.7  13.4

2023-06-18 04:32:57 #01111               114.8  5.1    ?  1528  50.2  16.1
2023-06-18 04:36:10 #01111                36.7 43.5    ?   435  50.9  16.3
2023-06-18 04:39:22 #01111               319.7  5.1    ?  1526  51.7  16.4

2023-06-18 06:02:25 #01111               151.3  5.0    ?  1532  71.4  20.1
2023-06-18 06:05:43 #01111               240.6 74.6    ?   317  72.1  20.3
2023-06-18 06:09:00 #01111               326.7  5.0    ?  1529  72.9  20.4

2023-06-18 07:32:34 #01111               192.2  5.0    ?  1531  93.2  24.6
2023-06-18 07:35:38 #01111               260.9 25.6    ?   651  93.9  24.8
2023-06-18 07:38:42 #01111               329.5  5.0    ?  1532  94.7  24.9

2023-06-18 09:03:42 #01111               238.8  5.0    ?  1533 116.1  29.1
2023-06-18 09:05:59 #01111               282.9 10.8    ?  1140 116.7  29.2
2023-06-18 09:08:16 #01111               327.0  5.1    ?  1530 117.2  29.3

2023-06-18 18:12:12 #01111                40.0  5.0    ?  1527 263.6  25.3
2023-06-18 18:13:32 #01111                64.2  6.6    ?  1402 263.9  25.2
2023-06-18 18:14:53 #01111                88.7  5.0    ?  1520 264.3  25.2

2023-06-18 19:41:27 #01111                31.1  5.1    ?  1527 285.3  20.8
2023-06-18 19:44:09 #01111                86.6 15.6    ?   913 285.9  20.7
2023-06-18 19:46:51 #01111               142.8  5.0    ?  1514 286.6  20.5

2023-06-18 21:11:06 #01111                31.3  5.0    ?  1531 306.6  16.7
2023-06-18 21:14:19 #01111               108.9 40.0    ?   458 307.3  16.6
2023-06-18 21:17:29 #01111               186.7  5.1    ?  1507 308.1  16.5

2023-06-18 22:40:47 #01111                35.9  5.1    ?  1529 327.6  13.6
2023-06-18 22:44:04 #01111               309.4 69.4    ?   323 328.4  13.5
2023-06-18 22:47:18 #01111               225.9  5.0    ?  1512 329.1  13.4

2023-06-19 00:10:20 #01111                45.4  5.0    ?  1532 348.6  11.9
2023-06-19 00:13:29 #01111               332.4 33.0    ?   531 349.3  11.9
2023-06-19 00:16:35 #01111               260.2  5.1    ?  1514 350.1  11.9

2023-06-19 01:39:41 #01111                61.3  5.1    ?  1528   9.5  11.9
2023-06-19 01:42:42 #01111               354.6 25.1    ?   658  10.2  11.9
2023-06-19 01:45:42 #01111               288.0  5.0    ?  1521  10.9  11.9

2023-06-19 03:08:49 #01111                85.4  5.1    ?  1529  30.4  13.4
2023-06-19 03:11:53 #01111                16.5 27.5    ?   614  31.1  13.5
2023-06-19 03:14:56 #01111               307.8  5.0    ?  1524  31.8  13.6

2023-06-19 04:37:58 #01111               116.7  5.1    ?  1528  51.3  16.4
2023-06-19 04:41:11 #01111                38.5 45.2    ?   422  52.1  16.5
2023-06-19 04:44:24 #01111               320.2  5.0    ?  1527  52.8  16.6

2023-06-19 06:07:28 #01111               153.4  5.0    ?  1530  72.5  20.4
2023-06-19 06:10:45 #01111               239.3 70.2    ?   324  73.3  20.5
2023-06-19 06:14:02 #01111               327.0  5.0    ?  1526  74.1  20.7

2023-06-19 07:37:40 #01111               194.7  5.1    ?  1527  94.4  24.9
2023-06-19 07:40:42 #01111               262.2 24.2    ?   677  95.1  25.1
2023-06-19 07:43:44 #01111               329.5  5.0    ?  1530  95.9  25.2

2023-06-19 09:08:52 #01111               241.8  5.0    ?  1530 117.3  29.3
2023-06-19 09:11:05 #01111               284.4 10.3    ?  1167 117.9  29.4
2023-06-19 09:13:17 #01111               326.6  5.0    ?  1529 118.5  29.5

2023-06-19 18:17:11 #01111                39.0  5.0    ?  1525 264.8  25.1
2023-06-19 18:18:38 #01111                65.4  6.9    ?  1376 265.1  25.0
2023-06-19 18:20:06 #01111                92.3  5.0    ?  1518 265.5  24.9

2023-06-19 19:46:29 #01111                31.0  5.0    ?  1526 286.4  20.6
2023-06-19 19:49:14 #01111                88.1 16.3    ?   885 287.1  20.4
2023-06-19 19:51:57 #01111               145.3  5.1    ?  1507 287.8  20.3

2023-06-19 21:16:09 #01111                31.5  5.1    ?  1526 307.7  16.5
2023-06-19 21:19:22 #01111               110.1 42.4    ?   437 308.5  16.4
2023-06-19 21:22:33 #01111               189.0  5.0    ?  1509 309.2  16.3

2023-06-19 22:45:49 #01111                36.3  5.0    ?  1530 328.7  13.5
2023-06-19 22:49:05 #01111               313.5 65.7    ?   331 329.5  13.4
2023-06-19 22:52:19 #01111               228.0  5.1    ?  1508 330.3  13.3

2023-06-20 00:15:22 #01111                46.0  5.0    ?  1529 349.7  11.9
2023-06-20 00:18:30 #01111               333.6 32.1    ?   542 350.5  11.9
2023-06-20 00:21:35 #01111               262.0  5.1    ?  1512 351.2  11.9

2023-06-20 01:44:41 #01111                62.5  5.0    ?  1533  10.6  11.9
2023-06-20 01:47:42 #01111               356.2 24.9    ?   660  11.3  11.9
2023-06-20 01:50:42 #01111               289.4  5.0    ?  1518  12.0  12.0

2023-06-20 03:13:49 #01111                87.0  5.0    ?  1531  31.5  13.5
2023-06-20 03:16:53 #01111                18.3 27.9    ?   606  32.2  13.6
2023-06-20 03:19:57 #01111               308.7  5.0    ?  1523  32.9  13.7

2023-06-20 04:42:59 #01111               118.6  5.1    ?  1527  52.4  16.6
2023-06-20 04:46:12 #01111                40.4 47.2    ?   409  53.2  16.7
2023-06-20 04:49:25 #01111               320.7  5.1    ?  1520  53.9  16.8

2023-06-20 06:12:31 #01111               155.6  5.1    ?  1527  73.7  20.6
2023-06-20 06:15:48 #01111               242.4 65.8    ?   333  74.4  20.8
2023-06-20 06:19:04 #01111               327.2  5.0    ?  1524  75.2  20.9

2023-06-20 07:42:45 #01111               197.1  5.0    ?  1531  95.6  25.2
2023-06-20 07:45:46 #01111               263.5 23.0    ?   703  96.3  25.3
2023-06-20 07:48:46 #01111               329.5  5.0    ?  1529  97.1  25.5

2023-06-20 09:14:02 #01111               244.8  5.0    ?  1529 118.6  29.6
2023-06-20 09:16:10 #01111               285.5  9.8    ?  1194 119.2  29.7
2023-06-20 09:18:18 #01111               326.1  5.0    ?  1529 119.7  29.8

2023-06-20 18:22:10 #01111                38.0  5.0    ?  1525 266.0  24.8
2023-06-20 18:23:44 #01111                66.7  7.2    ?  1349 266.3  24.8
2023-06-20 18:25:18 #01111                95.7  5.0    ?  1514 266.7  24.7

2023-06-20 19:51:31 #01111                30.9  5.0    ?  1525 287.6  20.3
2023-06-20 19:54:18 #01111                89.2 17.1    ?   858 288.3  20.2
2023-06-20 19:57:04 #01111               147.9  5.0    ?  1509 288.9  20.1

2023-06-20 21:21:11 #01111                31.6  5.0    ?  1527 308.8  16.3
2023-06-20 21:24:25 #01111               111.5 45.1    ?   417 309.6  16.2
2023-06-20 21:27:36 #01111               191.3  5.0    ?  1505 310.4  16.1

2023-06-20 22:50:51 #01111                36.7  5.0    ?  1529 329.9  13.4
2023-06-20 22:54:07 #01111               313.4 62.2    ?   340 330.6  13.3
2023-06-20 22:57:20 #01111               230.0  5.1    ?  1506 331.4  13.2

2023-06-21 00:20:23 #01111                46.8  5.0    ?  1531 350.8  11.9
2023-06-21 00:23:30 #01111               335.5 31.3    ?   552 351.6  11.8
2023-06-21 00:26:35 #01111               263.7  5.1    ?  1511 352.3  11.8

2023-06-21 01:49:42 #01111                63.6  5.0    ?  1529  11.8  12.0
2023-06-21 01:52:43 #01111               357.0 24.8    ?   661  12.5  12.0
2023-06-21 01:55:42 #01111               290.7  5.0    ?  1516  13.2  12.0

2023-06-21 03:18:50 #01111                88.5  5.1    ?  1525  32.6  13.7
2023-06-21 03:21:54 #01111                19.1 28.4    ?   598  33.3  13.8
2023-06-21 03:24:58 #01111               309.6  5.0    ?  1522  34.1  13.8

2023-06-21 04:48:00 #01111               120.5  5.1    ?  1526  53.6  16.8
2023-06-21 04:51:14 #01111                40.4 49.3    ?   396  54.3  16.9
2023-06-21 04:54:27 #01111               321.2  5.0    ?  1522  55.1  17.0

2023-06-21 06:17:34 #01111               157.9  5.1    ?  1525  74.8  20.8
2023-06-21 06:20:50 #01111               242.4 61.7    ?   344  75.6  21.0
2023-06-21 06:24:06 #01111               327.4  5.0    ?  1524  76.4  21.2

2023-06-21 07:47:51 #01111               199.6  5.0    ?  1528  96.8  25.4
2023-06-21 07:50:49 #01111               264.2 21.8    ?   729  97.5  25.6
2023-06-21 07:53:47 #01111               329.3  5.1    ?  1522  98.2  25.7

2023-06-21 09:19:12 #01111               247.8  5.0    ?  1529 119.9  29.8
2023-06-21 09:21:15 #01111               286.6  9.3    ?  1222 120.4  29.9
2023-06-21 09:23:18 #01111               325.5  5.0    ?  1525 121.0  30.0

2023-06-21 18:27:10 #01111                37.3  5.0    ?  1522 267.1  24.6
2023-06-21 18:28:50 #01111                68.1  7.6    ?  1322 267.5  24.5
2023-06-21 18:30:30 #01111                99.1  5.0    ?  1513 267.9  24.4

2023-06-21 19:56:33 #01111                30.8  5.0    ?  1524 288.8  20.1
2023-06-21 19:59:22 #01111                90.3 17.9    ?   830 289.4  20.0
2023-06-21 20:02:10 #01111               150.4  5.0    ?  1506 290.1  19.8

2023-06-21 21:26:13 #01111                31.8  5.0    ?  1527 310.0  16.2
2023-06-21 21:29:28 #01111               113.4 48.0    ?   398 310.7  16.0
2023-06-21 21:32:39 #01111               193.5  5.0    ?  1503 311.5  15.9

2023-06-21 22:55:53 #01111                37.1  5.0    ?  1527 331.0  13.3
2023-06-21 22:59:08 #01111               315.6 59.0    ?   350 331.8  13.2
2023-06-21 23:02:21 #01111               232.0  5.0    ?  1505 332.5  13.1

2023-06-22 00:25:25 #01111                47.4  5.1    ?  1525 352.0  11.8
2023-06-22 00:28:31 #01111               336.4 30.5    ?   562 352.7  11.8
2023-06-22 00:31:35 #01111               265.4  5.0    ?  1510 353.4  11.8

2023-06-22 01:54:43 #01111                64.7  5.1    ?  1525  12.9  12.0
2023-06-22 01:57:43 #01111               358.4 24.7    ?   662  13.6  12.1
2023-06-22 02:00:42 #01111               292.0  5.0    ?  1515  14.3  12.1

2023-06-22 03:23:50 #01111                90.1  5.1    ?  1525  33.7  13.8
2023-06-22 03:26:55 #01111                19.9 28.9    ?   589  34.5  13.9
2023-06-22 03:29:58 #01111               310.5  5.1    ?  1516  35.2  14.0

2023-06-22 04:53:01 #01111               122.5  5.1    ?  1524  54.7  17.0
2023-06-22 04:56:15 #01111                42.0 51.5    ?   383  55.5  17.1
2023-06-22 04:59:28 #01111               321.7  5.1    ?  1517  56.2  17.2

2023-06-22 06:22:37 #01111               160.1  5.1    ?  1523  76.0  21.1
2023-06-22 06:25:52 #01111               242.8 57.8    ?   357  76.8  21.2
2023-06-22 06:29:08 #01111               327.7  5.0    ?  1524  77.5  21.4

2023-06-22 07:52:57 #01111               202.1  5.0    ?  1526  98.0  25.7
2023-06-22 07:55:53 #01111               265.6 20.7    ?   756  98.7  25.8
2023-06-22 07:58:49 #01111               329.3  5.0    ?  1523  99.4  26.0

2023-06-22 09:24:23 #01111               251.1  5.0    ?  1526 121.2  30.0
2023-06-22 09:26:21 #01111               288.1  8.8    ?  1249 121.7  30.1
2023-06-22 09:28:18 #01111               324.9  5.0    ?  1524 122.2  30.2

2023-06-22 18:32:10 #01111                36.6  5.0    ?  1520 268.3  24.4
2023-06-22 18:33:55 #01111                69.2  8.0    ?  1296 268.7  24.3
2023-06-22 18:35:41 #01111               102.4  5.0    ?  1511 269.2  24.2

2023-06-22 20:01:35 #01111                30.8  5.0    ?  1521 289.9  19.9
2023-06-22 20:04:26 #01111                91.6 18.8    ?   802 290.6  19.7
2023-06-22 20:07:16 #01111               152.9  5.0    ?  1505 291.3  19.6

2023-06-22 21:31:16 #01111                32.0  5.1    ?  1519 311.1  16.0
2023-06-22 21:34:30 #01111               113.9 51.2    ?   381 311.9  15.8
2023-06-22 21:37:42 #01111               195.8  5.0    ?  1503 312.6  15.7

2023-06-22 23:00:55 #01111                37.5  5.0    ?  1525 332.1  13.2
2023-06-22 23:04:10 #01111               315.0 56.0    ?   360 332.9  13.1
2023-06-22 23:07:22 #01111               234.0  5.0    ?  1507 333.6  13.0

2023-06-23 00:30:26 #01111                48.2  5.0    ?  1524 353.1  11.8
2023-06-23 00:33:31 #01111               338.0 29.8    ?   572 353.8  11.8
2023-06-23 00:36:35 #01111               267.1  5.0    ?  1511 354.5  11.8

2023-06-23 01:59:43 #01111                66.0  5.0    ?  1526  14.0  12.1
2023-06-23 02:02:43 #01111               359.8 24.6    ?   662  14.7  12.1
2023-06-23 02:05:42 #01111               293.2  5.0    ?  1514  15.4  12.2

2023-06-23 03:28:50 #01111                91.7  5.0    ?  1524  34.9  13.9
2023-06-23 03:31:55 #01111                21.5 29.4    ?   580  35.6  14.0
2023-06-23 03:34:59 #01111               311.3  5.0    ?  1517  36.3  14.1

2023-06-23 04:58:02 #01111               124.4  5.1    ?  1522  55.8  17.2
2023-06-23 05:01:16 #01111                43.5 54.0    ?   371  56.6  17.3
2023-06-23 05:04:30 #01111               322.2  5.0    ?  1520  57.3  17.4

2023-06-23 06:27:40 #01111               162.3  5.1    ?  1521  77.1  21.3
2023-06-23 06:30:55 #01111               245.5 54.1    ?   371  77.9  21.5
2023-06-23 06:34:09 #01111               327.8  5.1    ?  1517  78.7  21.6

2023-06-23 07:58:03 #01111               204.6  5.0    ?  1524  99.2  25.9
2023-06-23 08:00:57 #01111               267.0 19.7    ?   782  99.9  26.0
2023-06-23 08:03:50 #01111               329.2  5.1    ?  1518 100.6  26.2

2023-06-23 09:29:33 #01111               254.1  5.0    ?  1528 122.5  30.2
2023-06-23 09:31:26 #01111               289.3  8.4    ?  1275 123.0  30.3
2023-06-23 09:33:18 #01111               324.2  5.0    ?  1524 123.5  30.4

2023-06-23 18:37:10 #01111                36.0  5.0    ?  1518 269.5  24.1
2023-06-23 18:39:01 #01111                70.7  8.3    ?  1268 269.9  24.0
2023-06-23 18:40:51 #01111               105.4  5.0    ?  1507 270.4  23.9

2023-06-23 20:06:37 #01111                30.8  5.0    ?  1518 291.0  19.6
2023-06-23 20:09:30 #01111                93.0 19.7    ?   775 291.7  19.5
2023-06-23 20:12:21 #01111               155.4  5.0    ?  1500 292.4  19.4

2023-06-23 21:36:18 #01111                32.2  5.1    ?  1518 312.2  15.8
2023-06-23 21:39:32 #01111               114.6 54.6    ?   364 313.0  15.7
2023-06-23 21:42:44 #01111               198.0  5.1    ?  1498 313.8  15.5

2023-06-23 23:05:57 #01111                37.9  5.0    ?  1521 333.3  13.0
2023-06-23 23:09:11 #01111               316.4 53.2    ?   371 334.0  13.0
2023-06-23 23:12:22 #01111               236.1  5.0    ?  1502 334.8  12.9

2023-06-24 00:35:27 #01111                49.0  5.0    ?  1523 354.2  11.8
2023-06-24 00:38:32 #01111               338.5 29.1    ?   580 354.9  11.7
2023-06-24 00:41:34 #01111               268.9  5.1    ?  1506 355.6  11.7

2023-06-24 02:04:43 #01111                67.2  5.0    ?  1526  15.1  12.1
2023-06-24 02:07:43 #01111                 1.0 24.6    ?   662  15.8  12.2
2023-06-24 02:10:42 #01111               294.5  5.0    ?  1514  16.5  12.2

2023-06-24 03:33:50 #01111                93.4  5.0    ?  1523  36.0  14.1
2023-06-24 03:36:55 #01111                22.9 30.0    ?   570  36.7  14.2
2023-06-24 03:39:59 #01111               312.1  5.1    ?  1511  37.4  14.3

2023-06-24 05:03:03 #01111               126.4  5.1    ?  1520  57.0  17.3
2023-06-24 05:06:17 #01111                44.9 56.7    ?   359  57.7  17.5
2023-06-24 05:09:31 #01111               322.6  5.0    ?  1517  58.5  17.6

2023-06-24 06:32:43 #01111               164.6  5.1    ?  1519  78.3  21.5
2023-06-24 06:35:57 #01111               246.3 50.7    ?   386  79.1  21.7
2023-06-24 06:39:11 #01111               328.0  5.0    ?  1519  79.9  21.9

2023-06-24 08:03:09 #01111               207.2  5.0    ?  1523 100.4  26.1
2023-06-24 08:06:01 #01111               268.4 18.7    ?   809 101.1  26.3
2023-06-24 08:08:52 #01111               329.2  5.0    ?  1521 101.8  26.4

2023-06-24 09:34:45 #01111               257.6  5.0    ?  1523 123.8  30.4
2023-06-24 09:36:31 #01111               290.5  8.0    ?  1302 124.2  30.5
2023-06-24 09:38:17 #01111               323.4  5.0    ?  1522 124.7  30.6

2023-06-24 18:42:10 #01111                35.4  5.0    ?  1517 270.6  23.8
2023-06-24 18:44:06 #01111                72.0  8.7    ?  1241 271.1  23.7
2023-06-24 18:46:01 #01111               108.5  5.0    ?  1505 271.6  23.6

2023-06-24 20:11:39 #01111                30.8  5.1    ?  1515 292.2  19.4
2023-06-24 20:14:33 #01111                94.0 20.6    ?   748 292.9  19.3
2023-06-24 20:17:26 #01111               157.8  5.1    ?  1497 293.6  19.1

2023-06-24 21:41:20 #01111                32.4  5.1    ?  1515 313.4  15.6
2023-06-24 21:44:34 #01111               115.7 58.2    ?   350 314.1  15.5
2023-06-24 21:47:46 #01111               200.2  5.1    ?  1495 314.9  15.3

2023-06-24 23:10:59 #01111                38.4  5.1    ?  1516 334.4  12.9
2023-06-24 23:14:12 #01111               317.5 50.7    ?   383 335.1  12.8
2023-06-24 23:17:22 #01111               238.1  5.1    ?  1499 335.9  12.8

2023-06-25 00:40:28 #01111                49.8  5.0    ?  1520 355.3  11.7
2023-06-25 00:43:32 #01111               339.9 28.5    ?   589 356.1  11.7
2023-06-25 00:46:34 #01111               270.5  5.0    ?  1508 356.8  11.7

2023-06-25 02:09:44 #01111                68.3  5.1    ?  1518  16.2  12.2
2023-06-25 02:12:43 #01111                 2.1 24.6    ?   661  16.9  12.2
2023-06-25 02:15:41 #01111               295.8  5.1    ?  1508  17.6  12.3

2023-06-25 03:38:50 #01111                95.0  5.1    ?  1520  37.1  14.2
2023-06-25 03:41:55 #01111                24.4 30.6    ?   560  37.8  14.3
2023-06-25 03:45:00 #01111               312.8  5.0    ?  1513  38.6  14.4

2023-06-25 05:08:04 #01111               128.4  5.1    ?  1517  58.1  17.5
2023-06-25 05:11:18 #01111                46.2 59.7    ?   348  58.9  17.7
2023-06-25 05:14:32 #01111               323.0  5.0    ?  1514  59.6  17.8

2023-06-25 06:37:46 #01111               166.8  5.1    ?  1518  79.5  21.8
2023-06-25 06:40:59 #01111               247.1 47.5    ?   403  80.2  21.9
2023-06-25 06:44:12 #01111               328.2  5.1    ?  1514  81.0  22.1

2023-06-25 08:08:15 #01111               209.7  5.0    ?  1522 101.6  26.4
2023-06-25 08:11:04 #01111               269.3 17.8    ?   836 102.3  26.5
2023-06-25 08:13:53 #01111               329.1  5.0    ?  1519 103.0  26.6

2023-06-25 09:39:56 #01111               260.9  5.0    ?  1524 125.1  30.6
2023-06-25 09:41:36 #01111               291.7  7.6    ?  1328 125.5  30.7
2023-06-25 09:43:16 #01111               322.5  5.0    ?  1521 126.0  30.8

2023-06-25 18:47:10 #01111                34.8  5.0    ?  1516 271.8  23.6
2023-06-25 18:49:11 #01111                73.3  9.1    ?  1214 272.3  23.5
2023-06-25 18:51:10 #01111               111.5  5.0    ?  1502 272.8  23.4

2023-06-25 20:16:40 #01111                30.7  5.0    ?  1517 293.3  19.1
2023-06-25 20:19:37 #01111                95.7 21.6    ?   721 294.0  19.0
2023-06-25 20:22:31 #01111               160.3  5.0    ?  1496 294.7  18.9

2023-06-25 21:46:21 #01111                32.6  5.0    ?  1519 314.5  15.4
2023-06-25 21:49:36 #01111               117.2 62.1    ?   336 315.3  15.3
2023-06-25 21:52:48 #01111               202.5  5.1    ?  1494 316.0  15.1

2023-06-25 23:16:00 #01111                38.9  5.0    ?  1517 335.5  12.8
2023-06-25 23:19:12 #01111               319.9 48.3    ?   394 336.3  12.7
2023-06-25 23:22:22 #01111               240.0  5.1    ?  1497 337.0  12.6

2023-06-26 00:45:29 #01111                50.5  5.1    ?  1516 356.5  11.7
2023-06-26 00:48:32 #01111               341.1 27.9    ?   597 357.2  11.7
2023-06-26 00:51:33 #01111               272.1  5.0    ?  1505 357.9  11.7

2023-06-26 02:14:44 #01111                69.6  5.1    ?  1516  17.4  12.2
2023-06-26 02:17:43 #01111                 3.2 24.6    ?   660  18.1  12.3
2023-06-26 02:20:41 #01111               296.9  5.0    ?  1509  18.8  12.3

2023-06-26 03:43:50 #01111                96.7  5.1    ?  1517  38.2  14.3
2023-06-26 03:46:56 #01111                24.7 31.3    ?   549  39.0  14.4
2023-06-26 03:50:00 #01111               313.6  5.1    ?  1509  39.7  14.5

2023-06-26 05:13:04 #01111               130.5  5.0    ?  1522  59.2  17.7
2023-06-26 05:16:19 #01111                47.3 62.9    ?   337  60.0  17.9
2023-06-26 05:19:33 #01111               323.5  5.0    ?  1512  60.8  18.0

2023-06-26 06:42:49 #01111               169.1  5.1    ?  1516  80.6  22.0
2023-06-26 06:46:01 #01111               248.2 44.5    ?   421  81.4  22.1
2023-06-26 06:49:13 #01111               328.3  5.1    ?  1511  82.2  22.3

2023-06-26 08:13:22 #01111               212.5  5.1    ?  1516 102.9  26.6
2023-06-26 08:16:08 #01111               270.8 17.0    ?   863 103.6  26.7
2023-06-26 08:18:54 #01111               328.9  5.0    ?  1518 104.3  26.8

2023-06-26 09:45:09 #01111               264.7  5.0    ?  1519 126.4  30.8
2023-06-26 09:46:41 #01111               292.9  7.2    ?  1355 126.8  30.9
2023-06-26 09:48:14 #01111               321.4  5.0    ?  1519 127.2  30.9

2023-06-26 18:52:11 #01111                34.6  5.1    ?  1510 273.0  23.3
2023-06-26 18:54:15 #01111                74.4  9.6    ?  1186 273.5  23.2
2023-06-26 18:56:19 #01111               114.5  5.0    ?  1500 274.0  23.1

2023-06-26 20:21:42 #01111                30.8  5.1    ?  1512 294.5  18.9
2023-06-26 20:24:40 #01111                96.9 22.7    ?   694 295.2  18.8
2023-06-26 20:27:36 #01111               162.8  5.0    ?  1497 295.9  18.6

2023-06-26 21:51:23 #01111                32.9  5.0    ?  1514 315.6  15.2
2023-06-26 21:54:38 #01111               119.7 66.2    ?   325 316.4  15.1
2023-06-26 21:57:50 #01111               204.7  5.0    ?  1495 317.1  14.9

2023-06-26 23:21:01 #01111                39.3  5.0    ?  1517 336.6  12.6
2023-06-26 23:24:13 #01111               320.3 46.2    ?   406 337.4  12.6
2023-06-26 23:27:22 #01111               242.0  5.0    ?  1497 338.1  12.5

2023-06-27 00:50:29 #01111                51.4  5.0    ?  1518 357.6  11.6
2023-06-27 00:53:31 #01111               343.0 27.4    ?   605 358.3  11.6
2023-06-27 00:56:32 #01111               273.7  5.0    ?  1503 359.0  11.6

2023-06-27 02:19:43 #01111                70.9  5.0    ?  1520  18.5  12.3
2023-06-27 02:22:42 #01111                 4.9 24.6    ?   658  19.2  12.3
2023-06-27 02:25:40 #01111               298.1  5.1    ?  1504  19.9  12.4

2023-06-27 03:48:49 #01111                98.5  5.0    ?  1521  39.4  14.4
2023-06-27 03:51:56 #01111                25.9 32.1    ?   538  40.1  14.5
2023-06-27 03:55:00 #01111               314.4  5.1    ?  1505  40.8  14.6

2023-06-27 05:18:05 #01111               132.5  5.0    ?  1519  60.4  17.9
2023-06-27 05:21:20 #01111                48.1 66.3    ?   328  61.1  18.0
2023-06-27 05:24:34 #01111               323.8  5.0    ?  1511  61.9  18.2

2023-06-27 06:47:52 #01111               171.4  5.1    ?  1515  81.8  22.2
2023-06-27 06:51:03 #01111               249.3 41.8    ?   440  82.6  22.4
2023-06-27 06:54:14 #01111               328.4  5.1    ?  1508  83.4  22.5

2023-06-27 08:18:28 #01111               215.0  5.0    ?  1516 104.1  26.8
2023-06-27 08:21:11 #01111               271.7 16.1    ?   891 104.8  26.9
2023-06-27 08:23:54 #01111               328.6  5.1    ?  1511 105.5  27.0

2023-06-27 09:50:21 #01111               268.3  5.0    ?  1520 127.7  31.0
2023-06-27 09:51:46 #01111               294.2  6.8    ?  1380 128.1  31.0
2023-06-27 09:53:11 #01111               320.1  5.0    ?  1516 128.5  31.1

2023-06-27 18:57:11 #01111                34.1  5.0    ?  1510 274.1  23.0
2023-06-27 18:59:20 #01111                75.9 10.0    ?  1159 274.6  22.9
2023-06-27 19:01:27 #01111               117.3  5.0    ?  1496 275.2  22.8

2023-06-27 20:26:43 #01111                30.8  5.0    ?  1513 295.6  18.6
2023-06-27 20:29:43 #01111                98.2 23.9    ?   667 296.3  18.5
2023-06-27 20:32:40 #01111               165.2  5.0    ?  1494 297.0  18.4

2023-06-27 21:56:24 #01111                33.1  5.0    ?  1516 316.7  15.0
2023-06-27 21:59:39 #01111               119.3 70.6    ?   315 317.5  14.8
2023-06-27 22:02:51 #01111               206.9  5.1    ?  1490 318.3  14.7

2023-06-27 23:26:02 #01111                39.8  5.0    ?  1515 337.8  12.5
2023-06-27 23:29:13 #01111               322.0 44.2    ?   419 338.5  12.4
2023-06-27 23:32:22 #01111               243.9  5.0    ?  1498 339.2  12.4

2023-06-28 00:55:30 #01111                52.2  5.1    ?  1512 358.7  11.6
2023-06-28 00:58:31 #01111               343.9 26.9    ?   612 359.4  11.6
2023-06-28 01:01:31 #01111               275.3  5.0    ?  1501   0.1  11.6

2023-06-28 02:24:43 #01111                72.2  5.0    ?  1515  19.6  12.3
2023-06-28 02:27:42 #01111                 5.7 24.7    ?   655  20.3  12.3
2023-06-28 02:30:40 #01111               299.2  5.0    ?  1506  21.0  12.4

2023-06-28 03:53:49 #01111               100.2  5.0    ?  1516  40.5  14.5
2023-06-28 03:56:55 #01111                28.1 32.9    ?   527  41.2  14.7
2023-06-28 04:00:01 #01111               315.0  5.0    ?  1508  42.0  14.8

2023-06-28 05:23:06 #01111               134.5  5.0    ?  1515  61.5  18.1
2023-06-28 05:26:21 #01111                48.5 70.0    ?   319  62.3  18.2
2023-06-28 05:29:35 #01111               324.2  5.0    ?  1511  63.1  18.4

2023-06-28 06:52:55 #01111               173.7  5.1    ?  1513  83.0  22.4
2023-06-28 06:56:05 #01111               250.5 39.3    ?   460  83.8  22.6
2023-06-28 06:59:15 #01111               328.5  5.1    ?  1506  84.5  22.7

2023-06-28 08:23:34 #01111               217.6  5.0    ?  1517 105.3  27.0
2023-06-28 08:26:15 #01111               273.2 15.3    ?   918 106.0  27.1
2023-06-28 08:28:55 #01111               328.5  5.0    ?  1512 106.7  27.2

2023-06-28 09:55:35 #01111               272.4  5.0    ?  1517 129.1  31.1
2023-06-28 09:56:51 #01111               295.4  6.4    ?  1406 129.4  31.2
2023-06-28 09:58:07 #01111               318.5  5.0    ?  1514 129.7  31.2

2023-06-28 19:02:11 #01111                33.7  5.0    ?  1509 275.3  22.7
2023-06-28 19:04:24 #01111                77.0 10.5    ?  1131 275.8  22.6
2023-06-28 19:06:35 #01111               120.2  5.0    ?  1494 276.3  22.5

2023-06-28 20:31:45 #01111                30.9  5.1    ?  1507 296.7  18.4
2023-06-28 20:34:45 #01111                99.0 25.1    ?   641 297.4  18.2
2023-06-28 20:37:44 #01111               167.7  5.0    ?  1492 298.2  18.1

2023-06-28 22:01:26 #01111                33.4  5.1    ?  1509 317.9  14.7
2023-06-28 22:04:40 #01111               119.0 75.1    ?   307 318.6  14.6
2023-06-28 22:07:52 #01111               209.1  5.1    ?  1487 319.4  14.5

2023-06-28 23:31:03 #01111                40.3  5.0    ?  1513 338.9  12.4
2023-06-28 23:34:13 #01111               323.4 42.3    ?   431 339.6  12.3
2023-06-28 23:37:21 #01111               245.9  5.0    ?  1494 340.4  12.3

2023-06-29 01:00:30 #01111                53.1  5.0    ?  1511 359.8  11.5
2023-06-29 01:03:31 #01111               344.7 26.5    ?   618   0.5  11.5
2023-06-29 01:06:30 #01111               276.9  5.0    ?  1501   1.2  11.5

2023-06-29 02:29:43 #01111                73.5  5.1    ?  1510  20.7  12.3
2023-06-29 02:32:41 #01111                 7.2 24.8    ?   652  21.4  12.4
2023-06-29 02:35:39 #01111               300.4  5.0    ?  1503  22.1  12.4

2023-06-29 03:58:49 #01111               101.9  5.1    ?  1511  41.6  14.7
2023-06-29 04:01:55 #01111                29.1 33.8    ?   515  42.4  14.8
2023-06-29 04:05:01 #01111               315.7  5.0    ?  1506  43.1  14.9

2023-06-29 05:28:07 #01111               136.6  5.1    ?  1512  62.7  18.2
2023-06-29 05:31:22 #01111                48.1 73.9    ?   312  63.4  18.4
2023-06-29 05:34:35 #01111               324.6  5.1    ?  1504  64.2  18.5

2023-06-29 06:57:58 #01111               176.1  5.0    ?  1512  84.2  22.6
2023-06-29 07:01:07 #01111               251.8 36.9    ?   482  84.9  22.8
2023-06-29 07:04:16 #01111               328.6  5.1    ?  1505  85.7  22.9

2023-06-29 08:28:41 #01111               220.4  5.0    ?  1513 106.6  27.2
2023-06-29 08:31:18 #01111               274.2 14.6    ?   946 107.3  27.3
2023-06-29 08:33:55 #01111               328.2  5.0    ?  1508 107.9  27.4

2023-06-29 10:00:50 #01111               276.8  5.0    ?  1514 130.4  31.3
2023-06-29 10:01:56 #01111               296.7  6.0    ?  1432 130.7  31.3
2023-06-29 10:03:02 #01111               316.6  5.0    ?  1512 131.0  31.4

2023-06-29 19:07:11 #01111                33.3  5.0    ?  1509 276.4  22.4
2023-06-29 19:09:28 #01111                78.3 11.0    ?  1103 277.0  22.3
2023-06-29 19:11:43 #01111               123.1  5.0    ?  1494 277.5  22.2

2023-06-29 20:36:46 #01111                30.9  5.1    ?  1506 297.9  18.1
2023-06-29 20:39:48 #01111               100.7 26.4    ?   616 298.6  18.0
2023-06-29 20:42:47 #01111               170.0  5.1    ?  1486 299.3  17.8

2023-06-29 22:06:27 #01111                33.6  5.0    ?  1508 319.0  14.5
2023-06-29 22:09:41 #01111               118.9 79.8    ?   301 319.8  14.4
2023-06-29 22:12:53 #01111               211.2  5.1    ?  1487 320.5  14.3

2023-06-29 23:36:04 #01111                40.9  5.0    ?  1509 340.0  12.2
2023-06-29 23:39:13 #01111               324.6 40.7    ?   443 340.7  12.2
2023-06-29 23:42:20 #01111               247.8  5.1    ?  1491 341.5  12.1

2023-06-30 01:05:30 #01111                54.0  5.0    ?  1510   1.0  11.5
2023-06-30 01:08:30 #01111               346.2 26.1    ?   625   1.7  11.5
2023-06-30 01:11:28 #01111               278.5  5.1    ?  1494   2.4  11.5

2023-06-30 02:34:42 #01111                74.9  5.0    ?  1511  21.9  12.4
2023-06-30 02:37:41 #01111                 7.9 24.9    ?   648  22.6  12.4
2023-06-30 02:40:38 #01111               301.5  5.1    ?  1499  23.3  12.5

2023-06-30 04:03:48 #01111               103.7  5.0    ?  1512  42.8  14.8
2023-06-30 04:06:55 #01111                30.1 34.7    ?   503  43.5  14.9
2023-06-30 04:10:01 #01111               316.4  5.0    ?  1504  44.2  15.0

2023-06-30 05:33:08 #01111               138.7  5.1    ?  1508  63.8  18.4
2023-06-30 05:36:22 #01111                53.1 78.2    ?   306  64.6  18.5
2023-06-30 05:39:36 #01111               324.9  5.0    ?  1505  65.4  18.7

2023-06-30 07:03:01 #01111               178.4  5.0    ?  1512  85.4  22.8
2023-06-30 07:06:09 #01111               253.1 34.8    ?   503  86.1  22.9
2023-06-30 07:09:17 #01111               328.7  5.0    ?  1505  86.9  23.1

2023-06-30 08:33:48 #01111               223.2  5.1    ?  1509 107.8  27.4
2023-06-30 08:36:22 #01111               275.7 13.9    ?   973 108.5  27.5
2023-06-30 08:38:55 #01111               327.9  5.1    ?  1506 109.1  27.6

2023-06-30 10:06:06 #01111               281.5  5.0    ?  1514 131.8  31.4
2023-06-30 10:07:01 #01111               298.0  5.7    ?  1457 132.0  31.4
2023-06-30 10:07:56 #01111               314.5  5.0    ?  1512 132.2  31.5

2023-06-30 19:12:12 #01111                33.2  5.0    ?  1503 277.6  22.1
2023-06-30 19:14:31 #01111                79.3 11.5    ?  1075 278.1  22.0
2023-06-30 19:16:50 #01111               125.8  5.0    ?  1491 278.7  21.9

2023-06-30 20:41:47 #01111                31.0  5.0    ?  1505 299.0  17.8
2023-06-30 20:44:50 #01111               101.8 27.8    ?   590 299.7  17.7
2023-06-30 20:47:51 #01111               172.5  5.0    ?  1489 300.4  17.6

2023-06-30 22:11:28 #01111                33.9  5.0    ?  1507 320.1  14.3
2023-06-30 22:14:42 #01111               119.5 84.5    ?   297 320.9  14.2
2023-06-30 22:17:54 #01111               213.4  5.0    ?  1488 321.6  14.1

2023-06-30 23:41:05 #01111                41.4  5.1    ?  1505 341.1  12.1
2023-06-30 23:44:13 #01111               325.5 39.1    ?   456 341.9  12.0
2023-06-30 23:47:19 #01111               249.7  5.1    ?  1489 342.6  12.0

2023-07-01 01:10:30 #01111                54.9  5.1    ?  1507   2.1  11.4
2023-07-01 01:13:29 #01111               347.6 25.7    ?   630   2.8  11.4
2023-07-01 01:16:27 #01111               280.0  5.0    ?  1495   3.5  11.4

2023-07-01 02:39:41 #01111                76.3  5.0    ?  1510  23.0  12.4
2023-07-01 02:42:40 #01111                 9.3 25.1    ?   644  23.7  12.5
2023-07-01 02:45:37 #01111               302.5  5.1    ?  1496  24.4  12.5

2023-07-01 04:08:48 #01111               105.4  5.1    ?  1506  43.9  14.9
2023-07-01 04:11:55 #01111                30.9 35.8    ?   491  44.6  15.0
2023-07-01 04:15:01 #01111               317.0  5.0    ?  1502  45.4  15.1

2023-07-01 05:38:08 #01111               140.8  5.0    ?  1511  65.0  18.6
2023-07-01 05:41:23 #01111                50.5 82.6    ?   301  65.7  18.7
2023-07-01 05:44:36 #01111               325.3  5.1    ?  1500  66.5  18.9

2023-07-01 07:08:04 #01111               180.7  5.0    ?  1511  86.6  23.0
2023-07-01 07:11:11 #01111               254.5 32.7    ?   526  87.3  23.1
2023-07-01 07:14:18 #01111               328.8  5.0    ?  1506  88.1  23.3

2023-07-01 08:38:54 #01111               225.8  5.0    ?  1512 109.1  27.5
2023-07-01 08:41:25 #01111               276.8 13.2    ?  1001 109.7  27.7
2023-07-01 08:43:55 #01111               327.7  5.0    ?  1504 110.4  27.8

2023-07-01 10:11:26 #01111               287.4  5.0    ?  1511 133.1  31.5
2023-07-01 10:12:06 #01111               299.3  5.4    ?  1481 133.3  31.6
2023-07-01 10:12:45 #01111               311.0  5.0    ?  1509 133.5  31.6

2023-07-01 19:17:12 #01111                32.9  5.0    ?  1503 278.7  21.8
2023-07-01 19:19:35 #01111                80.7 12.0    ?  1048 279.3  21.7
2023-07-01 19:21:57 #01111               128.7  5.0    ?  1490 279.9  21.6

2023-07-01 20:46:48 #01111                31.1  5.0    ?  1503 300.1  17.5
2023-07-01 20:49:52 #01111               103.0 29.4    ?   565 300.8  17.4
2023-07-01 20:52:54 #01111               174.8  5.0    ?  1488 301.6  17.3

2023-07-01 22:16:29 #01111                34.2  5.0    ?  1504 321.2  14.1
2023-07-01 22:19:43 #01111               137.5 89.3    ?   296 322.0  14.0
2023-07-01 22:22:54 #01111               215.5  5.1    ?  1483 322.7  13.9

2023-07-01 23:46:05 #01111                42.0  5.0    ?  1506 342.2  11.9
2023-07-01 23:49:13 #01111               326.3 37.7    ?   468 343.0  11.9
2023-07-01 23:52:18 #01111               251.6  5.1    ?  1488 343.7  11.9

2023-07-02 01:15:30 #01111                55.8  5.1    ?  1503   3.2  11.4
2023-07-02 01:18:28 #01111               348.9 25.4    ?   635   3.9  11.4
2023-07-02 01:21:25 #01111               281.5  5.1    ?  1490   4.6  11.4

2023-07-02 02:44:40 #01111                77.7  5.0    ?  1508  24.1  12.4
2023-07-02 02:47:39 #01111                10.5 25.3    ?   639  24.8  12.5
2023-07-02 02:50:36 #01111               303.6  5.1    ?  1494  25.5  12.6

2023-07-02 04:13:47 #01111               107.2  5.1    ?  1506  45.0  15.0
2023-07-02 04:16:54 #01111                32.8 36.9    ?   478  45.8  15.1
2023-07-02 04:20:01 #01111               317.6  5.0    ?  1501  46.5  15.2

2023-07-02 05:43:09 #01111               142.9  5.0    ?  1507  66.1  18.7
2023-07-02 05:46:23 #01111                63.7 87.1    ?   299  66.9  18.9
2023-07-02 05:49:37 #01111               325.6  5.0    ?  1502  67.7  19.0

2023-07-02 07:13:08 #01111               183.2  5.1    ?  1504  87.8  23.2
2023-07-02 07:16:13 #01111               255.9 30.9    ?   549  88.5  23.3
2023-07-02 07:19:18 #01111               328.9  5.0    ?  1501  89.3  23.5

2023-07-02 08:44:01 #01111               228.6  5.0    ?  1510 110.4  27.7
2023-07-02 08:46:28 #01111               277.9 12.6    ?  1028 111.0  27.8
2023-07-02 08:48:55 #01111               327.4  5.0    ?  1504 111.6  27.9

