Orbital pass data/90d_lat90.txt

Satellite passes / Orbitron 3.71 / www.stoff.pl

Location      : Picked Site (89.8043° W, 90.0000° N)
Time zone     : UTC +2:00
Search period : 2023-06-05 17:38:35 - 90 days
                2023-09-03 17:38:35
Conditions    : Maximum sun elevation = None
                Minimum sat elevation = 5 deg
                Illumination NOT required

Time                Satellite              Azm  Elv  Mag Range S.Azm S.Elv
--------------------------------------------------------------------------
2023-06-05 18:32:06 #01111               261.2  5.0    ?  1545 158.6  22.6
2023-06-05 18:35:00 #01111               322.1 18.9    ?   820 159.3  22.6
2023-06-05 18:37:54 #01111                23.3  5.1    ?  1539 160.0  22.6

2023-06-05 20:02:26 #01111               283.9  5.1    ?  1539 181.2  22.6
2023-06-05 20:05:20 #01111               345.2 18.9    ?   820 181.9  22.6
2023-06-05 20:08:13 #01111                45.9  5.1    ?  1538 182.6  22.6

2023-06-05 21:32:45 #01111               306.5  5.1    ?  1540 203.7  22.6
2023-06-05 21:35:39 #01111                 7.7 18.9    ?   820 204.5  22.6
2023-06-05 21:38:32 #01111                68.5  5.1    ?  1537 205.2  22.6

2023-06-05 23:03:04 #01111               329.0  5.0    ?  1541 226.3  22.6
2023-06-05 23:05:58 #01111                30.2 18.9    ?   820 227.0  22.6
2023-06-05 23:08:52 #01111                91.2  5.0    ?  1543 227.8  22.6

2023-06-06 00:33:23 #01111               351.6  5.0    ?  1542 248.9  22.6
2023-06-06 00:36:17 #01111                52.7 18.9    ?   820 249.6  22.6
2023-06-06 00:39:11 #01111               113.7  5.0    ?  1542 250.3  22.6

2023-06-06 02:03:42 #01111                14.2  5.0    ?  1542 271.5  22.6
2023-06-06 02:06:36 #01111                75.2 18.9    ?   820 272.2  22.6
2023-06-06 02:09:30 #01111               136.3  5.0    ?  1541 272.9  22.6

2023-06-06 03:34:01 #01111                36.7  5.0    ?  1543 294.1  22.6
2023-06-06 03:36:55 #01111                97.7 18.9    ?   820 294.8  22.6
2023-06-06 03:39:49 #01111               158.8  5.0    ?  1540 295.5  22.6

2023-06-06 05:04:20 #01111                59.3  5.0    ?  1544 316.6  22.7
2023-06-06 05:07:14 #01111               120.2 18.9    ?   820 317.4  22.7
2023-06-06 05:10:08 #01111               181.4  5.0    ?  1540 318.1  22.7

2023-06-06 06:34:40 #01111                82.0  5.1    ?  1538 339.2  22.7
2023-06-06 06:37:33 #01111               142.7 18.9    ?   820 339.9  22.7
2023-06-06 06:40:27 #01111               204.0  5.1    ?  1539 340.7  22.7

2023-06-06 08:04:59 #01111               104.6  5.1    ?  1539   1.8  22.7
2023-06-06 08:07:53 #01111               165.8 18.9    ?   820   2.5  22.7
2023-06-06 08:10:46 #01111               226.5  5.1    ?  1538   3.2  22.7

2023-06-06 09:35:18 #01111               127.1  5.1    ?  1540  24.4  22.7
2023-06-06 09:38:12 #01111               188.3 18.9    ?   820  25.1  22.7
2023-06-06 09:41:05 #01111               249.1  5.1    ?  1537  25.8  22.7

2023-06-06 11:05:37 #01111               149.7  5.0    ?  1541  46.9  22.7
2023-06-06 11:08:31 #01111               210.8 18.9    ?   820  47.7  22.7
2023-06-06 11:11:25 #01111               271.8  5.0    ?  1543  48.4  22.7

2023-06-06 12:35:56 #01111               172.2  5.0    ?  1542  69.5  22.7
2023-06-06 12:38:50 #01111               233.3 18.9    ?   820  70.2  22.7
2023-06-06 12:41:44 #01111               294.4  5.0    ?  1542  71.0  22.7

2023-06-06 14:06:15 #01111               194.8  5.0    ?  1542  92.1  22.7
2023-06-06 14:09:09 #01111               255.8 18.9    ?   820  92.8  22.7
2023-06-06 14:12:03 #01111               316.9  5.0    ?  1541  93.5  22.7

2023-06-06 15:36:34 #01111               217.4  5.0    ?  1543 114.7  22.7
2023-06-06 15:39:28 #01111               278.3 18.9    ?   820 115.4  22.7
2023-06-06 15:42:22 #01111               339.5  5.0    ?  1540 116.1  22.7

2023-06-06 17:06:53 #01111               239.9  5.0    ?  1544 137.2  22.7
2023-06-06 17:09:47 #01111               300.8 18.9    ?   820 138.0  22.7
2023-06-06 17:12:41 #01111                 2.0  5.0    ?  1540 138.7  22.7

2023-06-06 18:37:12 #01111               262.5  5.0    ?  1545 159.8  22.7
2023-06-06 18:40:06 #01111               323.4 18.9    ?   820 160.5  22.7
2023-06-06 18:43:00 #01111                24.6  5.0    ?  1539 161.3  22.7

2023-06-06 20:07:32 #01111               285.2  5.1    ?  1539 182.4  22.7
2023-06-06 20:10:26 #01111               346.4 18.9    ?   820 183.1  22.7
2023-06-06 20:13:19 #01111                47.2  5.1    ?  1538 183.8  22.7

2023-06-06 21:37:51 #01111               307.8  5.1    ?  1540 205.0  22.7
2023-06-06 21:40:45 #01111                 8.9 18.9    ?   820 205.7  22.7
2023-06-06 21:43:38 #01111                69.7  5.1    ?  1537 206.4  22.7

2023-06-06 23:08:10 #01111               330.3  5.0    ?  1541 227.6  22.7
2023-06-06 23:11:04 #01111                31.5 18.9    ?   820 228.3  22.7
2023-06-06 23:13:57 #01111                92.3  5.1    ?  1537 229.0  22.7

2023-06-07 00:38:29 #01111               352.9  5.0    ?  1541 250.1  22.7
2023-06-07 00:41:23 #01111                54.0 18.9    ?   820 250.9  22.7
2023-06-07 00:44:17 #01111               115.0  5.0    ?  1542 251.6  22.7

2023-06-07 02:08:48 #01111                15.4  5.0    ?  1542 272.7  22.7
2023-06-07 02:11:42 #01111                76.5 18.9    ?   820 273.4  22.7
2023-06-07 02:14:36 #01111               137.6  5.0    ?  1541 274.2  22.7

2023-06-07 03:39:07 #01111                38.0  5.0    ?  1543 295.3  22.8
2023-06-07 03:42:01 #01111                99.0 18.9    ?   820 296.0  22.8
2023-06-07 03:44:55 #01111               160.1  5.0    ?  1541 296.7  22.8

2023-06-07 05:09:26 #01111                60.6  5.0    ?  1544 317.9  22.8
2023-06-07 05:12:20 #01111               121.5 18.9    ?   820 318.6  22.8
2023-06-07 05:15:14 #01111               182.7  5.0    ?  1540 319.3  22.8

2023-06-07 06:39:45 #01111                83.1  5.0    ?  1545 340.4  22.8
2023-06-07 06:42:39 #01111               144.0 18.9    ?   820 341.2  22.8
2023-06-07 06:45:33 #01111               205.2  5.0    ?  1539 341.9  22.8

2023-06-07 08:10:05 #01111               105.8  5.1    ?  1539   3.0  22.8
2023-06-07 08:12:58 #01111               166.5 18.9    ?   820   3.7  22.8
2023-06-07 08:15:52 #01111               227.8  5.0    ?  1538   4.5  22.8

2023-06-07 09:40:24 #01111               128.4  5.1    ?  1540  25.6  22.8
2023-06-07 09:43:18 #01111               189.6 18.9    ?   820  26.3  22.8
2023-06-07 09:46:11 #01111               250.4  5.1    ?  1538  27.0  22.8

2023-06-07 11:10:43 #01111               151.0  5.1    ?  1540  48.2  22.8
2023-06-07 11:13:37 #01111               212.1 18.9    ?   820  48.9  22.8
2023-06-07 11:16:30 #01111               272.9  5.1    ?  1537  49.6  22.8

2023-06-07 12:41:02 #01111               173.5  5.0    ?  1541  70.7  22.8
2023-06-07 12:43:56 #01111               234.6 18.9    ?   820  71.5  22.8
2023-06-07 12:46:49 #01111               295.5  5.1    ?  1536  72.2  22.8

2023-06-07 14:11:21 #01111               196.1  5.0    ?  1542  93.3  22.8
2023-06-07 14:14:15 #01111               257.1 18.9    ?   820  94.0  22.8
2023-06-07 14:17:09 #01111               318.2  5.0    ?  1542  94.8  22.8

2023-06-07 15:41:40 #01111               218.6  5.0    ?  1543 115.9  22.8
2023-06-07 15:44:34 #01111               279.7 18.9    ?   820 116.6  22.8
2023-06-07 15:47:28 #01111               340.8  5.0    ?  1541 117.3  22.8

2023-06-07 17:11:59 #01111               241.2  5.0    ?  1543 138.5  22.8
2023-06-07 17:14:53 #01111               302.2 18.9    ?   820 139.2  22.8
2023-06-07 17:17:47 #01111                 3.3  5.0    ?  1540 139.9  22.8

2023-06-07 18:42:18 #01111               263.8  5.0    ?  1544 161.0  22.8
2023-06-07 18:45:12 #01111               324.7 18.9    ?   820 161.8  22.8
2023-06-07 18:48:06 #01111                25.9  5.0    ?  1540 162.5  22.8

2023-06-07 20:12:38 #01111               286.5  5.1    ?  1538 183.6  22.8
2023-06-07 20:15:31 #01111               347.2 18.9    ?   820 184.3  22.8
2023-06-07 20:18:25 #01111                48.5  5.0    ?  1539 185.1  22.8

2023-06-07 21:42:57 #01111               309.0  5.1    ?  1539 206.2  22.8
2023-06-07 21:45:51 #01111                10.3 18.9    ?   820 206.9  22.8
2023-06-07 21:48:44 #01111                71.0  5.0    ?  1538 207.7  22.8

2023-06-07 23:13:16 #01111               331.6  5.1    ?  1540 228.8  22.8
2023-06-07 23:16:10 #01111                32.8 18.9    ?   820 229.5  22.8
2023-06-07 23:19:03 #01111                93.6  5.1    ?  1537 230.2  22.8

2023-06-08 00:43:35 #01111               354.2  5.0    ?  1541 251.4  22.8
2023-06-08 00:46:29 #01111                55.3 18.9    ?   820 252.1  22.8
2023-06-08 00:49:22 #01111               116.1  5.1    ?  1537 252.8  22.8

2023-06-08 02:13:54 #01111                16.7  5.0    ?  1541 273.9  22.8
2023-06-08 02:16:48 #01111                77.8 18.9    ?   820 274.7  22.8
2023-06-08 02:19:41 #01111               138.7  5.1    ?  1536 275.4  22.8

2023-06-08 03:44:13 #01111                39.3  5.0    ?  1542 296.5  22.8
2023-06-08 03:47:07 #01111               100.3 18.9    ?   820 297.2  22.8
2023-06-08 03:50:00 #01111               161.3  5.1    ?  1535 298.0  22.8

2023-06-08 05:14:32 #01111                61.9  5.0    ?  1543 319.1  22.9
2023-06-08 05:17:26 #01111               122.9 18.9    ?   820 319.8  22.9
2023-06-08 05:20:20 #01111               184.0  5.0    ?  1541 320.5  22.9

2023-06-08 06:44:51 #01111                84.4  5.0    ?  1543 341.7  22.9
2023-06-08 06:47:45 #01111               145.4 18.9    ?   820 342.4  22.9
2023-06-08 06:50:39 #01111               206.5  5.0    ?  1540 343.1  22.9

2023-06-08 08:15:10 #01111               107.0  5.0    ?  1544   4.2  22.9
2023-06-08 08:18:04 #01111               167.9 18.9    ?   820   5.0  22.9
2023-06-08 08:20:58 #01111               229.1  5.0    ?  1539   5.7  22.9

2023-06-08 09:45:30 #01111               129.7  5.1    ?  1539  26.8  22.9
2023-06-08 09:48:23 #01111               190.4 18.9    ?   820  27.5  22.9
2023-06-08 09:51:17 #01111               251.7  5.0    ?  1539  28.3  22.9

2023-06-08 11:15:49 #01111               152.3  5.1    ?  1539  49.4  22.9
2023-06-08 11:18:42 #01111               212.9 18.9    ?   820  50.1  22.9
2023-06-08 11:21:36 #01111               274.2  5.0    ?  1538  50.8  22.9

2023-06-08 12:46:08 #01111               174.8  5.1    ?  1540  72.0  22.9
2023-06-08 12:49:02 #01111               236.0 18.9    ?   820  72.7  22.9
2023-06-08 12:51:55 #01111               296.8  5.0    ?  1537  73.4  22.9

2023-06-08 14:16:27 #01111               197.4  5.0    ?  1541  94.5  22.9
2023-06-08 14:19:21 #01111               258.5 18.9    ?   820  95.3  22.9
2023-06-08 14:22:14 #01111               319.4  5.1    ?  1537  96.0  22.9

2023-06-08 15:46:46 #01111               219.9  5.0    ?  1541 117.1  22.9
2023-06-08 15:49:40 #01111               281.0 18.9    ?   820 117.8  22.9
2023-06-08 15:52:33 #01111               341.9  5.1    ?  1536 118.6  22.9

2023-06-08 17:17:05 #01111               242.5  5.0    ?  1542 139.7  22.9
2023-06-08 17:19:59 #01111               303.6 18.9    ?   820 140.4  22.9
2023-06-08 17:22:52 #01111                 4.5  5.1    ?  1535 141.1  22.9

2023-06-08 18:47:24 #01111               265.1  5.0    ?  1543 162.3  22.9
2023-06-08 18:50:18 #01111               326.1 18.9    ?   820 163.0  22.9
2023-06-08 18:53:11 #01111                27.0  5.1    ?  1535 163.7  22.9

2023-06-08 20:17:43 #01111               287.6  5.0    ?  1543 184.9  22.9
2023-06-08 20:20:37 #01111               348.6 18.9    ?   820 185.6  22.9
2023-06-08 20:23:31 #01111                49.8  5.0    ?  1540 186.3  22.9

2023-06-08 21:48:02 #01111               310.2  5.0    ?  1544 207.4  22.9
2023-06-08 21:50:56 #01111                11.1 18.9    ?   820 208.2  22.9
2023-06-08 21:53:50 #01111                72.3  5.0    ?  1540 208.9  22.9

2023-06-08 23:18:22 #01111               332.9  5.1    ?  1538 230.0  22.9
2023-06-08 23:21:15 #01111                33.6 18.9    ?   820 230.7  22.9
2023-06-08 23:24:09 #01111                94.9  5.0    ?  1539 231.5  22.9

2023-06-09 00:48:41 #01111               355.5  5.1    ?  1539 252.6  22.9
2023-06-09 00:51:34 #01111                56.2 18.9    ?   820 253.3  22.9
2023-06-09 00:54:28 #01111               117.4  5.0    ?  1538 254.0  22.9

2023-06-09 02:19:00 #01111                18.0  5.1    ?  1540 275.2  22.9
2023-06-09 02:21:54 #01111                79.2 18.9    ?   820 275.9  22.9
2023-06-09 02:24:47 #01111               140.0  5.0    ?  1538 276.6  22.9

2023-06-09 03:49:19 #01111                40.6  5.0    ?  1540 297.7  22.9
2023-06-09 03:52:13 #01111               101.8 18.8    ?   820 298.5  22.9
2023-06-09 03:55:06 #01111               162.6  5.0    ?  1537 299.2  22.9

2023-06-09 05:19:38 #01111                63.2  5.0    ?  1541 320.3  22.9
2023-06-09 05:22:32 #01111               124.3 18.8    ?   820 321.0  22.9
2023-06-09 05:25:25 #01111               185.1  5.0    ?  1536 321.8  22.9

2023-06-09 06:49:57 #01111                85.7  5.0    ?  1542 342.9  22.9
2023-06-09 06:52:51 #01111               146.8 18.8    ?   820 343.6  22.9
2023-06-09 06:55:44 #01111               207.7  5.1    ?  1536 344.3  22.9

2023-06-09 08:20:16 #01111               108.3  5.0    ?  1542   5.5  23.0
2023-06-09 08:23:10 #01111               169.3 18.8    ?   820   6.2  23.0
2023-06-09 08:26:03 #01111               230.3  5.1    ?  1535   6.9  23.0

2023-06-09 09:50:35 #01111               130.9  5.0    ?  1543  28.0  23.0
2023-06-09 09:53:29 #01111               191.8 18.8    ?   820  28.8  23.0
2023-06-09 09:56:22 #01111               252.8  5.1    ?  1534  29.5  23.0

2023-06-09 11:20:54 #01111               153.4  5.0    ?  1544  50.6  23.0
2023-06-09 11:23:48 #01111               214.4 18.8    ?   820  51.3  23.0
2023-06-09 11:26:42 #01111               275.5  5.0    ?  1540  52.1  23.0

2023-06-09 12:51:13 #01111               176.0  5.0    ?  1544  73.2  23.0
2023-06-09 12:54:07 #01111               236.9 18.8    ?   820  73.9  23.0
2023-06-09 12:57:01 #01111               298.1  5.0    ?  1539  74.6  23.0

2023-06-09 14:21:33 #01111               198.7  5.1    ?  1539  95.8  23.0
2023-06-09 14:24:26 #01111               259.4 18.8    ?   820  96.5  23.0
2023-06-09 14:27:20 #01111               320.7  5.0    ?  1539  97.2  23.0

2023-06-09 15:51:52 #01111               221.3  5.1    ?  1539 118.3  23.0
2023-06-09 15:54:45 #01111               281.9 18.8    ?   820 119.1  23.0
2023-06-09 15:57:39 #01111               343.2  5.0    ?  1538 119.8  23.0

2023-06-09 17:22:11 #01111               243.8  5.1    ?  1540 140.9  23.0
2023-06-09 17:25:05 #01111               305.0 18.8    ?   820 141.7  23.0
2023-06-09 17:27:58 #01111                 5.8  5.0    ?  1537 142.4  23.0

2023-06-09 18:52:30 #01111               266.4  5.0    ?  1540 163.5  23.0
2023-06-09 18:55:24 #01111               327.5 18.8    ?   820 164.2  23.0
2023-06-09 18:58:17 #01111                28.4  5.0    ?  1537 164.9  23.0

2023-06-09 20:22:49 #01111               289.0  5.0    ?  1541 186.1  23.0
2023-06-09 20:25:43 #01111               350.1 18.8    ?   820 186.8  23.0
2023-06-09 20:28:36 #01111                50.9  5.0    ?  1536 187.5  23.0

2023-06-09 21:53:08 #01111               311.5  5.0    ?  1542 208.7  23.0
2023-06-09 21:56:02 #01111                12.6 18.8    ?   820 209.4  23.0
2023-06-09 21:58:55 #01111                73.5  5.0    ?  1536 210.1  23.0

2023-06-09 23:23:27 #01111               334.1  5.0    ?  1542 231.2  23.0
2023-06-09 23:26:21 #01111                35.1 18.8    ?   820 232.0  23.0
2023-06-09 23:29:14 #01111                96.1  5.1    ?  1535 232.7  23.0

2023-06-10 00:53:46 #01111               356.6  5.0    ?  1543 253.8  23.0
2023-06-10 00:56:40 #01111                57.6 18.8    ?   820 254.5  23.0
2023-06-10 00:59:33 #01111               118.6  5.1    ?  1534 255.3  23.0

2023-06-10 02:24:05 #01111                19.2  5.0    ?  1544 276.4  23.0
2023-06-10 02:26:59 #01111                80.2 18.8    ?   820 277.1  23.0
2023-06-10 02:29:52 #01111               141.2  5.1    ?  1534 277.8  23.0

2023-06-10 03:54:25 #01111                41.9  5.1    ?  1538 299.0  23.0
2023-06-10 03:57:18 #01111               102.7 18.8    ?   820 299.7  23.0
2023-06-10 04:00:11 #01111               163.8  5.1    ?  1533 300.4  23.0

2023-06-10 05:24:44 #01111                64.5  5.1    ?  1538 321.5  23.0
2023-06-10 05:27:37 #01111               125.2 18.8    ?   820 322.3  23.0
2023-06-10 05:30:31 #01111               186.5  5.0    ?  1539 323.0  23.0

2023-06-10 06:55:03 #01111                87.1  5.1    ?  1539 344.1  23.0
2023-06-10 06:57:56 #01111               147.7 18.8    ?   820 344.8  23.0
2023-06-10 07:00:50 #01111               209.0  5.0    ?  1538 345.6  23.0

2023-06-10 08:25:22 #01111               109.6  5.1    ?  1540   6.7  23.0
2023-06-10 08:28:16 #01111               170.8 18.8    ?   820   7.4  23.0
2023-06-10 08:31:09 #01111               231.6  5.0    ?  1538   8.1  23.0

2023-06-10 09:55:41 #01111               132.2  5.0    ?  1540  29.3  23.0
2023-06-10 09:58:35 #01111               193.4 18.8    ?   820  30.0  23.0
2023-06-10 10:01:28 #01111               254.2  5.0    ?  1537  30.7  23.0

2023-06-10 11:26:00 #01111               154.7  5.0    ?  1541  51.8  23.0
2023-06-10 11:28:54 #01111               215.9 18.8    ?   820  52.6  23.0
2023-06-10 11:31:47 #01111               276.7  5.0    ?  1536  53.3  23.0

2023-06-10 12:56:19 #01111               177.3  5.0    ?  1541  74.4  23.0
2023-06-10 12:59:13 #01111               238.4 18.8    ?   820  75.1  23.0
2023-06-10 13:02:06 #01111               299.3  5.0    ?  1536  75.9  23.0

2023-06-10 14:26:38 #01111               199.9  5.0    ?  1542  97.0  23.1
2023-06-10 14:29:32 #01111               260.9 18.8    ?   820  97.7  23.1
2023-06-10 14:32:25 #01111               321.9  5.0    ?  1535  98.4  23.1

2023-06-10 15:56:57 #01111               222.4  5.0    ?  1543 119.6  23.1
2023-06-10 15:59:51 #01111               283.5 18.8    ?   820 120.3  23.1
2023-06-10 16:02:44 #01111               344.4  5.0    ?  1535 121.0  23.1

2023-06-10 17:27:16 #01111               245.0  5.0    ?  1543 142.1  23.1
2023-06-10 17:30:10 #01111               306.0 18.8    ?   820 142.9  23.1
2023-06-10 17:33:03 #01111                 7.0  5.1    ?  1534 143.6  23.1

2023-06-10 18:57:36 #01111               267.7  5.1    ?  1538 164.7  23.1
2023-06-10 19:00:29 #01111               328.5 18.8    ?   820 165.4  23.1
2023-06-10 19:03:22 #01111                29.6  5.1    ?  1534 166.2  23.1

2023-06-10 20:27:55 #01111               290.3  5.1    ?  1538 187.3  23.1
2023-06-10 20:30:48 #01111               351.0 18.8    ?   820 188.0  23.1
2023-06-10 20:33:41 #01111                52.1  5.1    ?  1533 188.7  23.1

2023-06-10 21:58:14 #01111               312.9  5.1    ?  1539 209.9  23.1
2023-06-10 22:01:07 #01111                13.6 18.8    ?   820 210.6  23.1
2023-06-10 22:04:00 #01111                74.7  5.1    ?  1532 211.3  23.1

2023-06-10 23:28:33 #01111               335.4  5.1    ?  1539 232.5  23.1
2023-06-10 23:31:26 #01111                36.1 18.8    ?   820 233.2  23.1
2023-06-10 23:34:20 #01111                97.4  5.0    ?  1538 233.9  23.1

2023-06-11 00:58:52 #01111               358.0  5.0    ?  1540 255.0  23.1
2023-06-11 01:01:46 #01111                59.2 18.8    ?   819 255.8  23.1
2023-06-11 01:04:39 #01111               120.0  5.0    ?  1538 256.5  23.1

2023-06-11 02:29:11 #01111                20.5  5.0    ?  1540 277.6  23.1
2023-06-11 02:32:05 #01111                81.7 18.8    ?   819 278.3  23.1
2023-06-11 02:34:58 #01111               142.5  5.0    ?  1537 279.1  23.1

2023-06-11 03:59:30 #01111                43.1  5.0    ?  1541 300.2  23.1
2023-06-11 04:02:24 #01111               104.2 18.8    ?   819 300.9  23.1
2023-06-11 04:05:17 #01111               165.1  5.0    ?  1536 301.6  23.1

2023-06-11 05:29:49 #01111                65.7  5.0    ?  1542 322.8  23.1
2023-06-11 05:32:43 #01111               126.8 18.8    ?   819 323.5  23.1
2023-06-11 05:35:36 #01111               187.7  5.0    ?  1536 324.2  23.1

2023-06-11 07:00:08 #01111                88.2  5.0    ?  1542 345.3  23.1
2023-06-11 07:03:02 #01111               149.3 18.8    ?   819 346.1  23.1
2023-06-11 07:05:55 #01111               210.2  5.0    ?  1535 346.8  23.1

2023-06-11 08:30:27 #01111               110.8  5.0    ?  1543   7.9  23.1
2023-06-11 08:33:21 #01111               171.8 18.8    ?   819   8.6  23.1
2023-06-11 08:36:14 #01111               232.8  5.0    ?  1535   9.4  23.1

2023-06-11 10:00:46 #01111               133.4  5.0    ?  1543  30.5  23.1
2023-06-11 10:03:40 #01111               194.4 18.8    ?   819  31.2  23.1
2023-06-11 10:06:33 #01111               255.4  5.0    ?  1534  31.9  23.1

2023-06-11 11:31:06 #01111               156.1  5.1    ?  1537  53.1  23.1
2023-06-11 11:33:59 #01111               216.9 18.8    ?   819  53.8  23.1
2023-06-11 11:36:52 #01111               277.9  5.0    ?  1534  54.5  23.1

2023-06-11 13:01:25 #01111               178.7  5.1    ?  1538  75.6  23.1
2023-06-11 13:04:18 #01111               239.4 18.8    ?   819  76.4  23.1
2023-06-11 13:07:11 #01111               300.5  5.1    ?  1533  77.1  23.1

2023-06-11 14:31:44 #01111               201.2  5.1    ?  1538  98.2  23.1
2023-06-11 14:34:37 #01111               262.0 18.8    ?   819  98.9  23.1
2023-06-11 14:37:30 #01111               323.1  5.1    ?  1533  99.7  23.1

2023-06-11 16:02:03 #01111               223.8  5.1    ?  1539 120.8  23.1
2023-06-11 16:04:56 #01111               284.5 18.8    ?   819 121.5  23.1
2023-06-11 16:07:49 #01111               345.6  5.1    ?  1532 122.2  23.1

2023-06-11 17:32:22 #01111               246.4  5.0    ?  1540 143.4  23.1
2023-06-11 17:35:15 #01111               307.0 18.8    ?   819 144.1  23.1
2023-06-11 17:38:08 #01111                 8.2  5.1    ?  1531 144.8  23.1

2023-06-11 19:02:41 #01111               268.9  5.0    ?  1540 165.9  23.1
2023-06-11 19:05:35 #01111               330.1 18.8    ?   819 166.7  23.1
2023-06-11 19:08:27 #01111                30.8  5.1    ?  1531 167.4  23.1

2023-06-11 20:33:00 #01111               291.5  5.0    ?  1541 188.5  23.1
2023-06-11 20:35:54 #01111               352.7 18.8    ?   819 189.2  23.1
2023-06-11 20:38:47 #01111                53.5  5.0    ?  1537 190.0  23.1

2023-06-11 22:03:19 #01111               314.1  5.0    ?  1541 211.1  23.1
2023-06-11 22:06:13 #01111                15.2 18.8    ?   819 211.8  23.1
2023-06-11 22:09:06 #01111                76.0  5.0    ?  1536 212.5  23.1

2023-06-11 23:33:38 #01111               336.6  5.0    ?  1542 233.7  23.2
2023-06-11 23:36:32 #01111                37.7 18.8    ?   819 234.4  23.2
2023-06-11 23:39:25 #01111                98.6  5.0    ?  1536 235.1  23.2

2023-06-12 01:03:57 #01111               359.2  5.0    ?  1542 256.3  23.2
2023-06-12 01:06:51 #01111                60.2 18.8    ?   819 257.0  23.2
2023-06-12 01:09:44 #01111               121.2  5.0    ?  1535 257.7  23.2

2023-06-12 02:34:16 #01111                21.8  5.0    ?  1543 278.8  23.2
2023-06-12 02:37:10 #01111                82.8 18.8    ?   819 279.6  23.2
2023-06-12 02:40:03 #01111               143.8  5.0    ?  1535 280.3  23.2

2023-06-12 04:04:36 #01111                44.5  5.1    ?  1537 301.4  23.2
2023-06-12 04:07:29 #01111               105.3 18.8    ?   819 302.1  23.2
2023-06-12 04:10:22 #01111               166.3  5.0    ?  1534 302.8  23.2

2023-06-12 05:34:55 #01111                67.0  5.1    ?  1537 324.0  23.2
2023-06-12 05:37:48 #01111               127.8 18.8    ?   819 324.7  23.2
2023-06-12 05:40:41 #01111               188.9  5.0    ?  1534 325.4  23.2

2023-06-12 07:05:14 #01111                89.6  5.1    ?  1538 346.6  23.2
2023-06-12 07:08:07 #01111               150.4 18.8    ?   819 347.3  23.2
2023-06-12 07:11:00 #01111               211.5  5.0    ?  1533 348.0  23.2

2023-06-12 08:35:33 #01111               112.2  5.1    ?  1538   9.1  23.2
2023-06-12 08:38:26 #01111               172.9 18.8    ?   819   9.9  23.2
2023-06-12 08:41:19 #01111               234.0  5.0    ?  1533  10.6  23.2

2023-06-12 10:05:52 #01111               134.7  5.0    ?  1539  31.7  23.2
2023-06-12 10:08:45 #01111               195.4 18.8    ?   819  32.4  23.2
2023-06-12 10:11:38 #01111               256.6  5.1    ?  1532  33.2  23.2

2023-06-12 11:36:11 #01111               157.3  5.0    ?  1539  54.3  23.2
2023-06-12 11:39:04 #01111               218.0 18.8    ?   819  55.0  23.2
2023-06-12 11:41:57 #01111               279.2  5.1    ?  1532  55.7  23.2

2023-06-12 13:06:30 #01111               179.9  5.0    ?  1540  76.9  23.2
2023-06-12 13:09:24 #01111               241.1 18.8    ?   819  77.6  23.2
2023-06-12 13:12:16 #01111               301.7  5.1    ?  1531  78.3  23.2

2023-06-12 14:36:49 #01111               202.4  5.0    ?  1540  99.4  23.2
2023-06-12 14:39:43 #01111               263.6 18.8    ?   819 100.2  23.2
2023-06-12 14:42:35 #01111               324.3  5.1    ?  1531 100.9  23.2

2023-06-12 16:07:08 #01111               225.0  5.0    ?  1541 122.0  23.2
2023-06-12 16:10:02 #01111               286.2 18.8    ?   819 122.7  23.2
2023-06-12 16:12:54 #01111               346.9  5.1    ?  1530 123.5  23.2

2023-06-12 17:37:27 #01111               247.6  5.0    ?  1541 144.6  23.2
2023-06-12 17:40:21 #01111               308.7 18.8    ?   819 145.3  23.2
2023-06-12 17:43:13 #01111                 9.4  5.1    ?  1530 146.0  23.2

2023-06-12 19:07:46 #01111               270.1  5.0    ?  1542 167.2  23.2
2023-06-12 19:10:40 #01111               331.2 18.8    ?   819 167.9  23.2
2023-06-12 19:13:33 #01111                32.1  5.0    ?  1535 168.6  23.2

2023-06-12 20:38:06 #01111               292.9  5.1    ?  1536 189.7  23.2
2023-06-12 20:40:59 #01111               353.8 18.8    ?   819 190.5  23.2
2023-06-12 20:43:52 #01111                54.7  5.0    ?  1535 191.2  23.2

2023-06-12 22:08:25 #01111               315.4  5.1    ?  1537 212.3  23.2
2023-06-12 22:11:18 #01111                16.3 18.8    ?   819 213.0  23.2
2023-06-12 22:14:11 #01111                77.3  5.0    ?  1535 213.8  23.2

2023-06-12 23:38:44 #01111               338.0  5.1    ?  1537 234.9  23.2
2023-06-12 23:41:37 #01111                38.8 18.8    ?   819 235.6  23.2
2023-06-12 23:44:30 #01111                99.8  5.0    ?  1534 236.3  23.2

2023-06-13 01:09:03 #01111                 0.6  5.1    ?  1537 257.5  23.2
2023-06-13 01:11:56 #01111                61.4 18.8    ?   819 258.2  23.2
2023-06-13 01:14:49 #01111               122.4  5.0    ?  1534 258.9  23.2

2023-06-13 02:39:22 #01111                23.1  5.0    ?  1538 280.1  23.2
2023-06-13 02:42:15 #01111                83.9 18.8    ?   819 280.8  23.2
2023-06-13 02:45:08 #01111               145.0  5.0    ?  1533 281.5  23.2

2023-06-13 04:09:41 #01111                45.7  5.0    ?  1538 302.6  23.2
2023-06-13 04:12:34 #01111               106.4 18.8    ?   819 303.3  23.2
2023-06-13 04:15:27 #01111               167.6  5.0    ?  1533 304.1  23.2

2023-06-13 05:40:00 #01111                68.3  5.0    ?  1539 325.2  23.2
2023-06-13 05:42:53 #01111               129.0 18.8    ?   819 325.9  23.2
2023-06-13 05:45:46 #01111               190.1  5.0    ?  1532 326.6  23.2

2023-06-13 07:10:19 #01111                90.8  5.0    ?  1539 347.8  23.2
2023-06-13 07:13:12 #01111               151.5 18.8    ?   819 348.5  23.2
2023-06-13 07:16:05 #01111               212.7  5.0    ?  1532 349.2  23.2

2023-06-13 08:40:38 #01111               113.4  5.0    ?  1540  10.4  23.2
2023-06-13 08:43:31 #01111               174.1 18.8    ?   819  11.1  23.2
2023-06-13 08:46:24 #01111               235.3  5.0    ?  1531  11.8  23.2

2023-06-13 10:10:57 #01111               136.0  5.0    ?  1540  32.9  23.2
2023-06-13 10:13:51 #01111               197.2 18.8    ?   819  33.7  23.2
2023-06-13 10:16:43 #01111               257.8  5.0    ?  1531  34.4  23.2

2023-06-13 11:41:16 #01111               158.5  5.0    ?  1541  55.5  23.2
2023-06-13 11:44:10 #01111               219.7 18.8    ?   819  56.2  23.2
2023-06-13 11:47:02 #01111               280.4  5.1    ?  1530  56.9  23.2

2023-06-13 13:11:35 #01111               181.1  5.0    ?  1541  78.1  23.2
2023-06-13 13:14:29 #01111               242.2 18.8    ?   819  78.8  23.2
2023-06-13 13:17:21 #01111               303.0  5.1    ?  1530  79.5  23.2

2023-06-13 14:41:54 #01111               203.7  5.0    ?  1542 100.7  23.2
2023-06-13 14:44:48 #01111               264.8 18.8    ?   819 101.4  23.2
2023-06-13 14:47:40 #01111               325.5  5.1    ?  1529 102.1  23.2

2023-06-13 16:12:14 #01111               226.4  5.1    ?  1536 123.2  23.3
2023-06-13 16:15:07 #01111               287.3 18.8    ?   819 124.0  23.3
2023-06-13 16:17:59 #01111               348.1  5.1    ?  1529 124.7  23.3

2023-06-13 17:42:33 #01111               249.0  5.1    ?  1536 145.8  23.3
2023-06-13 17:45:26 #01111               309.9 18.8    ?   819 146.5  23.3
2023-06-13 17:48:18 #01111                10.7  5.1    ?  1529 147.3  23.3

2023-06-13 19:12:52 #01111               271.5  5.1    ?  1537 168.4  23.3
2023-06-13 19:15:45 #01111               332.4 18.8    ?   819 169.1  23.3
2023-06-13 19:18:37 #01111                33.2  5.1    ?  1528 169.8  23.3

2023-06-13 20:43:11 #01111               294.1  5.1    ?  1537 191.0  23.3
2023-06-13 20:46:04 #01111               354.9 18.8    ?   819 191.7  23.3
2023-06-13 20:48:57 #01111                56.0  5.0    ?  1534 192.4  23.3

2023-06-13 22:13:30 #01111               316.7  5.0    ?  1537 213.5  23.3
2023-06-13 22:16:23 #01111                17.5 18.8    ?   819 214.3  23.3
2023-06-13 22:19:16 #01111                78.5  5.0    ?  1534 215.0  23.3

2023-06-13 23:43:49 #01111               339.2  5.0    ?  1538 236.1  23.3
2023-06-13 23:46:42 #01111                40.0 18.8    ?   819 236.8  23.3
2023-06-13 23:49:35 #01111               101.1  5.0    ?  1533 237.6  23.3

2023-06-14 01:14:08 #01111                 1.8  5.0    ?  1538 258.7  23.3
2023-06-14 01:17:01 #01111                62.6 18.8    ?   819 259.4  23.3
2023-06-14 01:19:54 #01111               123.7  5.0    ?  1533 260.1  23.3

2023-06-14 02:44:27 #01111                24.4  5.0    ?  1539 281.3  23.3
2023-06-14 02:47:20 #01111                85.1 18.8    ?   819 282.0  23.3
2023-06-14 02:50:13 #01111               146.2  5.0    ?  1532 282.7  23.3

2023-06-14 04:14:46 #01111                47.0  5.0    ?  1539 303.8  23.3
2023-06-14 04:17:39 #01111               107.6 18.7    ?   819 304.6  23.3
2023-06-14 04:20:32 #01111               168.8  5.0    ?  1532 305.3  23.3

2023-06-14 05:45:05 #01111                69.5  5.0    ?  1540 326.4  23.3
2023-06-14 05:47:58 #01111               130.2 18.7    ?   819 327.1  23.3
2023-06-14 05:50:51 #01111               191.4  5.0    ?  1532 327.9  23.3

2023-06-14 07:15:24 #01111                92.1  5.0    ?  1540 349.0  23.3
2023-06-14 07:18:17 #01111               152.7 18.7    ?   819 349.7  23.3
2023-06-14 07:21:10 #01111               213.9  5.0    ?  1531 350.4  23.3

2023-06-14 08:45:43 #01111               114.7  5.0    ?  1540  11.6  23.3
2023-06-14 08:48:37 #01111               175.8 18.7    ?   819  12.3  23.3
2023-06-14 08:51:29 #01111               236.5  5.0    ?  1531  13.0  23.3

2023-06-14 10:16:02 #01111               137.2  5.0    ?  1541  34.1  23.3
2023-06-14 10:18:56 #01111               198.4 18.7    ?   819  34.9  23.3
2023-06-14 10:21:48 #01111               259.1  5.0    ?  1530  35.6  23.3

2023-06-14 11:46:22 #01111               159.9  5.1    ?  1535  56.7  23.3
2023-06-14 11:49:15 #01111               220.9 18.7    ?   819  57.4  23.3
2023-06-14 11:52:07 #01111               281.7  5.0    ?  1530  58.2  23.3

2023-06-14 13:16:41 #01111               182.5  5.1    ?  1535  79.3  23.3
2023-06-14 13:19:34 #01111               243.5 18.7    ?   819  80.0  23.3
2023-06-14 13:22:26 #01111               304.2  5.0    ?  1530  80.7  23.3

2023-06-14 14:47:00 #01111               205.1  5.1    ?  1536 101.9  23.3
2023-06-14 14:49:53 #01111               266.0 18.7    ?   819 102.6  23.3
2023-06-14 14:52:45 #01111               326.8  5.0    ?  1529 103.3  23.3

2023-06-14 16:17:19 #01111               227.7  5.1    ?  1536 124.5  23.3
2023-06-14 16:20:12 #01111               288.6 18.7    ?   819 125.2  23.3
2023-06-14 16:23:04 #01111               349.4  5.0    ?  1529 125.9  23.3

2023-06-14 17:47:38 #01111               250.2  5.0    ?  1536 147.0  23.3
2023-06-14 17:50:31 #01111               311.1 18.7    ?   819 147.8  23.3
2023-06-14 17:53:23 #01111                11.9  5.1    ?  1528 148.5  23.3

2023-06-14 19:17:57 #01111               272.8  5.0    ?  1537 169.6  23.3
2023-06-14 19:20:50 #01111               333.6 18.7    ?   819 170.3  23.3
2023-06-14 19:23:42 #01111                34.5  5.1    ?  1528 171.0  23.3

2023-06-14 20:48:16 #01111               295.4  5.0    ?  1537 192.2  23.3
2023-06-14 20:51:09 #01111               356.2 18.7    ?   819 192.9  23.3
2023-06-14 20:54:01 #01111                57.1  5.1    ?  1528 193.6  23.3

2023-06-14 22:18:35 #01111               317.9  5.0    ?  1538 214.8  23.3
2023-06-14 22:21:28 #01111                18.7 18.7    ?   819 215.5  23.3
2023-06-14 22:24:20 #01111                79.6  5.1    ?  1527 216.2  23.3

2023-06-14 23:48:54 #01111               340.5  5.0    ?  1538 237.3  23.3
2023-06-14 23:51:47 #01111                41.3 18.7    ?   819 238.1  23.3
2023-06-14 23:54:39 #01111               102.2  5.1    ?  1527 238.8  23.3

2023-06-15 01:19:13 #01111                 3.1  5.0    ?  1538 259.9  23.3
2023-06-15 01:22:06 #01111                63.8 18.7    ?   819 260.6  23.3
2023-06-15 01:24:58 #01111               124.8  5.1    ?  1526 261.3  23.3

2023-06-15 02:49:32 #01111                25.6  5.0    ?  1539 282.5  23.3
2023-06-15 02:52:25 #01111                86.4 18.7    ?   819 283.2  23.3
2023-06-15 02:55:17 #01111               147.4  5.1    ?  1526 283.9  23.3

2023-06-15 04:19:51 #01111                48.2  5.0    ?  1539 305.1  23.3
2023-06-15 04:22:44 #01111               108.9 18.7    ?   819 305.8  23.3
2023-06-15 04:25:36 #01111               169.9  5.1    ?  1526 306.5  23.3

2023-06-15 05:50:10 #01111                70.8  5.0    ?  1539 327.6  23.3
2023-06-15 05:53:03 #01111               131.5 18.7    ?   819 328.4  23.3
2023-06-15 05:55:56 #01111               192.6  5.0    ?  1532 329.1  23.3

2023-06-15 07:20:29 #01111                93.4  5.0    ?  1540 350.2  23.3
2023-06-15 07:23:22 #01111               154.0 18.7    ?   819 350.9  23.3
2023-06-15 07:26:15 #01111               215.2  5.0    ?  1531 351.7  23.3

2023-06-15 08:50:49 #01111               116.1  5.1    ?  1534  12.8  23.3
2023-06-15 08:53:41 #01111               176.6 18.7    ?   819  13.5  23.3
2023-06-15 08:56:34 #01111               237.8  5.0    ?  1531  14.2  23.3

2023-06-15 10:21:08 #01111               138.6  5.1    ?  1534  35.4  23.3
2023-06-15 10:24:01 #01111               199.7 18.7    ?   819  36.1  23.3
2023-06-15 10:26:53 #01111               260.4  5.0    ?  1531  36.8  23.3

2023-06-15 11:51:27 #01111               161.2  5.1    ?  1534  57.9  23.3
2023-06-15 11:54:20 #01111               222.2 18.7    ?   819  58.7  23.3
2023-06-15 11:57:12 #01111               282.9  5.0    ?  1530  59.4  23.3

2023-06-15 13:21:46 #01111               183.8  5.1    ?  1535  80.5  23.3
2023-06-15 13:24:39 #01111               244.8 18.7    ?   819  81.2  23.3
2023-06-15 13:27:31 #01111               305.5  5.0    ?  1530  82.0  23.3

2023-06-15 14:52:05 #01111               206.4  5.1    ?  1535 103.1  23.3
2023-06-15 14:54:58 #01111               267.3 18.7    ?   819 103.8  23.3
2023-06-15 14:57:50 #01111               328.1  5.0    ?  1530 104.5  23.3

2023-06-15 16:22:24 #01111               228.9  5.0    ?  1536 125.7  23.4
2023-06-15 16:25:17 #01111               289.9 18.7    ?   819 126.4  23.4
2023-06-15 16:28:09 #01111               350.6  5.0    ?  1529 127.1  23.4

2023-06-15 17:52:43 #01111               251.5  5.0    ?  1536 148.2  23.4
2023-06-15 17:55:36 #01111               312.4 18.7    ?   819 149.0  23.4
2023-06-15 17:58:28 #01111                13.2  5.0    ?  1529 149.7  23.4

2023-06-15 19:23:02 #01111               274.1  5.0    ?  1536 170.8  23.4
2023-06-15 19:25:55 #01111               335.0 18.7    ?   819 171.5  23.4
2023-06-15 19:28:47 #01111                35.8  5.0    ?  1529 172.3  23.4

2023-06-15 20:53:21 #01111               296.6  5.0    ?  1537 193.4  23.4
2023-06-15 20:56:14 #01111               357.5 18.7    ?   819 194.1  23.4
2023-06-15 20:59:06 #01111                58.4  5.0    ?  1528 194.8  23.4

2023-06-15 22:23:40 #01111               319.2  5.0    ?  1537 216.0  23.4
2023-06-15 22:26:33 #01111                20.1 18.7    ?   819 216.7  23.4
2023-06-15 22:29:25 #01111                80.9  5.0    ?  1528 217.4  23.4

2023-06-15 23:53:59 #01111               341.8  5.0    ?  1537 238.6  23.4
2023-06-15 23:56:52 #01111                42.6 18.7    ?   819 239.3  23.4
2023-06-15 23:59:44 #01111               103.5  5.0    ?  1528 240.0  23.4

2023-06-16 01:24:18 #01111                 4.4  5.0    ?  1538 261.1  23.4
2023-06-16 01:27:11 #01111                65.2 18.7    ?   819 261.8  23.4
2023-06-16 01:30:03 #01111               126.1  5.0    ?  1527 262.6  23.4

2023-06-16 02:54:37 #01111                26.9  5.0    ?  1538 283.7  23.4
2023-06-16 02:57:30 #01111                87.7 18.7    ?   819 284.4  23.4
2023-06-16 03:00:22 #01111               148.6  5.0    ?  1527 285.1  23.4

2023-06-16 04:24:56 #01111                49.5  5.0    ?  1538 306.3  23.4
2023-06-16 04:27:49 #01111               110.3 18.7    ?   819 307.0  23.4
2023-06-16 04:30:41 #01111               171.2  5.0    ?  1527 307.7  23.4

2023-06-16 05:55:15 #01111                72.1  5.0    ?  1538 328.9  23.4
2023-06-16 05:58:08 #01111               132.8 18.7    ?   819 329.6  23.4
2023-06-16 06:01:00 #01111               193.8  5.0    ?  1526 330.3  23.4

2023-06-16 07:25:34 #01111                94.6  5.0    ?  1539 351.4  23.4
2023-06-16 07:28:27 #01111               155.4 18.7    ?   819 352.2  23.4
2023-06-16 07:31:19 #01111               216.4  5.0    ?  1526 352.9  23.4

2023-06-16 08:55:54 #01111               117.4  5.1    ?  1533  14.0  23.4
2023-06-16 08:58:46 #01111               177.9 18.7    ?   819  14.7  23.4
2023-06-16 09:01:38 #01111               238.9  5.1    ?  1526  15.4  23.4

2023-06-16 10:26:13 #01111               139.9  5.1    ?  1533  36.6  23.4
2023-06-16 10:29:05 #01111               200.5 18.7    ?   819  37.3  23.4
2023-06-16 10:31:57 #01111               261.5  5.1    ?  1525  38.0  23.4

2023-06-16 11:56:32 #01111               162.5  5.1    ?  1533  59.2  23.4
2023-06-16 11:59:24 #01111               223.0 18.7    ?   819  59.9  23.4
2023-06-16 12:02:16 #01111               284.1  5.1    ?  1525  60.6  23.4

2023-06-16 13:26:51 #01111               185.1  5.1    ?  1534  81.7  23.4
2023-06-16 13:29:43 #01111               245.6 18.7    ?   819  82.5  23.4
2023-06-16 13:32:35 #01111               306.6  5.1    ?  1525  83.2  23.4

2023-06-16 14:57:10 #01111               207.6  5.1    ?  1534 104.3  23.4
2023-06-16 15:00:02 #01111               268.1 18.7    ?   819 105.0  23.4
2023-06-16 15:02:54 #01111               329.2  5.1    ?  1525 105.7  23.4

2023-06-16 16:27:29 #01111               230.2  5.0    ?  1534 126.9  23.4
2023-06-16 16:30:22 #01111               291.3 18.7    ?   819 127.6  23.4
2023-06-16 16:33:13 #01111               351.8  5.1    ?  1524 128.3  23.4

2023-06-16 17:57:48 #01111               252.8  5.0    ?  1535 149.5  23.4
2023-06-16 18:00:41 #01111               313.8 18.7    ?   819 150.2  23.4
2023-06-16 18:03:32 #01111                14.4  5.1    ?  1524 150.9  23.4

2023-06-16 19:28:07 #01111               275.4  5.0    ?  1535 172.0  23.4
2023-06-16 19:31:00 #01111               336.4 18.7    ?   819 172.8  23.4
2023-06-16 19:33:51 #01111                36.9  5.1    ?  1524 173.5  23.4

2023-06-16 20:58:26 #01111               297.9  5.0    ?  1535 194.6  23.4
2023-06-16 21:01:19 #01111               358.9 18.7    ?   818 195.3  23.4
2023-06-16 21:04:10 #01111                59.5  5.1    ?  1523 196.1  23.4

2023-06-16 22:28:45 #01111               320.5  5.0    ?  1535 217.2  23.4
2023-06-16 22:31:38 #01111                21.5 18.7    ?   818 217.9  23.4
2023-06-16 22:34:29 #01111                82.1  5.1    ?  1523 218.6  23.4

2023-06-16 23:59:04 #01111               343.1  5.0    ?  1536 239.8  23.4
2023-06-17 00:01:57 #01111                44.0 18.7    ?   818 240.5  23.4
2023-06-17 00:04:48 #01111               104.6  5.1    ?  1523 241.2  23.4

2023-06-17 01:29:23 #01111                 5.7  5.0    ?  1536 262.3  23.4
2023-06-17 01:32:16 #01111                66.6 18.7    ?   818 263.1  23.4
2023-06-17 01:35:07 #01111               127.2  5.1    ?  1523 263.8  23.4

2023-06-17 02:59:42 #01111                28.2  5.0    ?  1536 284.9  23.4
2023-06-17 03:02:35 #01111                89.1 18.7    ?   818 285.6  23.4
2023-06-17 03:05:27 #01111               149.9  5.0    ?  1529 286.4  23.4

2023-06-17 04:30:01 #01111                50.8  5.0    ?  1536 307.5  23.4
2023-06-17 04:32:54 #01111               111.7 18.7    ?   818 308.2  23.4
2023-06-17 04:35:46 #01111               172.5  5.0    ?  1528 308.9  23.4

2023-06-17 06:00:20 #01111                73.4  5.0    ?  1537 330.1  23.4
2023-06-17 06:03:13 #01111               134.2 18.7    ?   818 330.8  23.4
2023-06-17 06:06:05 #01111               195.1  5.0    ?  1528 331.5  23.4

2023-06-17 07:30:39 #01111                95.9  5.0    ?  1537 352.6  23.4
2023-06-17 07:33:32 #01111               156.8 18.7    ?   818 353.4  23.4
2023-06-17 07:36:24 #01111               217.7  5.0    ?  1528 354.1  23.4

2023-06-17 09:00:58 #01111               118.5  5.0    ?  1537  15.2  23.4
2023-06-17 09:03:51 #01111               179.3 18.7    ?   818  15.9  23.4
2023-06-17 09:06:43 #01111               240.2  5.0    ?  1528  16.7  23.4

2023-06-17 10:31:18 #01111               141.2  5.1    ?  1531  37.8  23.4
2023-06-17 10:34:10 #01111               201.9 18.7    ?   818  38.5  23.4
2023-06-17 10:37:02 #01111               262.8  5.0    ?  1527  39.2  23.4

2023-06-17 12:01:37 #01111               163.8  5.1    ?  1531  60.4  23.4
2023-06-17 12:04:29 #01111               224.5 18.7    ?   818  61.1  23.4
2023-06-17 12:07:21 #01111               285.4  5.0    ?  1527  61.8  23.4

2023-06-17 13:31:56 #01111               186.4  5.1    ?  1532  83.0  23.4
2023-06-17 13:34:48 #01111               247.0 18.6    ?   818  83.7  23.4
2023-06-17 13:37:40 #01111               308.0  5.0    ?  1527  84.4  23.4

2023-06-17 15:02:15 #01111               209.0  5.1    ?  1532 105.5  23.4
2023-06-17 15:05:07 #01111               269.6 18.6    ?   818 106.2  23.4
2023-06-17 15:07:59 #01111               330.5  5.0    ?  1527 107.0  23.4

2023-06-17 16:32:34 #01111               231.5  5.1    ?  1532 128.1  23.4
2023-06-17 16:35:26 #01111               292.1 18.6    ?   818 128.8  23.4
2023-06-17 16:38:18 #01111               353.1  5.0    ?  1526 129.5  23.4

2023-06-17 18:02:53 #01111               254.1  5.1    ?  1532 150.7  23.4
2023-06-17 18:05:45 #01111               314.7 18.6    ?   818 151.4  23.4
2023-06-17 18:08:37 #01111                15.7  5.0    ?  1526 152.1  23.4

2023-06-17 19:33:12 #01111               276.7  5.0    ?  1533 173.3  23.4
2023-06-17 19:36:04 #01111               337.2 18.6    ?   818 174.0  23.4
2023-06-17 19:38:56 #01111                38.3  5.0    ?  1526 174.7  23.4

2023-06-17 21:03:31 #01111               299.3  5.0    ?  1533 195.8  23.4
2023-06-17 21:06:23 #01111               359.8 18.6    ?   818 196.6  23.4
2023-06-17 21:09:15 #01111                60.8  5.0    ?  1526 197.3  23.4

2023-06-17 22:33:50 #01111               321.8  5.0    ?  1533 218.4  23.4
2023-06-17 22:36:42 #01111                22.4 18.6    ?   818 219.1  23.4
2023-06-17 22:39:34 #01111                83.4  5.0    ?  1525 219.8  23.4

2023-06-18 00:04:09 #01111               344.4  5.0    ?  1533 241.0  23.4
2023-06-18 00:07:01 #01111                44.9 18.6    ?   818 241.7  23.4
2023-06-18 00:09:53 #01111               106.0  5.0    ?  1525 242.4  23.4

2023-06-18 01:34:28 #01111                 7.0  5.0    ?  1534 263.6  23.4
2023-06-18 01:37:20 #01111                67.5 18.6    ?   818 264.3  23.4
2023-06-18 01:40:12 #01111               128.5  5.0    ?  1525 265.0  23.4

2023-06-18 03:04:47 #01111                29.5  5.0    ?  1534 286.1  23.4
2023-06-18 03:07:39 #01111                90.0 18.6    ?   818 286.9  23.4
2023-06-18 03:10:31 #01111               151.1  5.0    ?  1525 287.6  23.4

2023-06-18 04:35:06 #01111                52.1  5.0    ?  1534 308.7  23.4
2023-06-18 04:37:58 #01111               112.6 18.6    ?   818 309.4  23.4
2023-06-18 04:40:50 #01111               173.7  5.0    ?  1525 310.1  23.4

2023-06-18 06:05:25 #01111                74.7  5.0    ?  1534 331.3  23.4
2023-06-18 06:08:18 #01111               135.7 18.6    ?   818 332.0  23.4
2023-06-18 06:11:09 #01111               196.3  5.0    ?  1524 332.7  23.4

2023-06-18 07:35:44 #01111                97.3  5.0    ?  1534 353.9  23.4
2023-06-18 07:38:37 #01111               158.3 18.6    ?   818 354.6  23.4
2023-06-18 07:41:28 #01111               218.8  5.0    ?  1524 355.3  23.4

2023-06-18 09:06:03 #01111               119.8  5.0    ?  1535  16.4  23.4
2023-06-18 09:08:56 #01111               180.9 18.6    ?   818  17.2  23.4
2023-06-18 09:11:47 #01111               241.4  5.0    ?  1524  17.9  23.4

2023-06-18 10:36:22 #01111               142.4  5.0    ?  1535  39.0  23.4
2023-06-18 10:39:15 #01111               203.4 18.6    ?   818  39.7  23.4
2023-06-18 10:42:06 #01111               264.0  5.0    ?  1524  40.4  23.4

2023-06-18 12:06:41 #01111               165.0  5.0    ?  1535  61.6  23.4
2023-06-18 12:09:34 #01111               226.0 18.6    ?   818  62.3  23.4
2023-06-18 12:12:25 #01111               286.6  5.0    ?  1523  63.0  23.4

2023-06-18 13:37:00 #01111               187.6  5.0    ?  1535  84.2  23.4
2023-06-18 13:39:53 #01111               248.5 18.6    ?   818  84.9  23.4
2023-06-18 13:42:44 #01111               309.1  5.0    ?  1523  85.6  23.4

2023-06-18 15:07:19 #01111               210.1  5.0    ?  1535 106.7  23.4
2023-06-18 15:10:12 #01111               271.1 18.6    ?   818 107.5  23.4
2023-06-18 15:13:03 #01111               331.7  5.0    ?  1523 108.2  23.4

2023-06-18 16:37:39 #01111               232.9  5.1    ?  1529 129.3  23.4
2023-06-18 16:40:31 #01111               293.7 18.6    ?   818 130.0  23.4
2023-06-18 16:43:22 #01111               354.3  5.0    ?  1523 130.8  23.4

2023-06-18 18:07:58 #01111               255.4  5.1    ?  1529 151.9  23.4
2023-06-18 18:10:50 #01111               316.2 18.6    ?   818 152.6  23.4
2023-06-18 18:13:41 #01111                16.9  5.0    ?  1523 153.3  23.4

2023-06-18 19:38:17 #01111               278.0  5.1    ?  1530 174.5  23.4
2023-06-18 19:41:09 #01111               338.8 18.6    ?   818 175.2  23.4
2023-06-18 19:44:00 #01111                39.4  5.0    ?  1523 175.9  23.4

2023-06-18 21:08:36 #01111               300.6  5.1    ?  1530 197.0  23.4
2023-06-18 21:11:28 #01111                 1.3 18.6    ?   818 197.8  23.4
2023-06-18 21:14:19 #01111                62.0  5.0    ?  1522 198.5  23.4

2023-06-18 22:38:55 #01111               323.2  5.1    ?  1530 219.6  23.4
2023-06-18 22:41:47 #01111                23.9 18.6    ?   818 220.3  23.4
2023-06-18 22:44:38 #01111                84.6  5.0    ?  1522 221.1  23.4

2023-06-19 00:09:14 #01111               345.7  5.1    ?  1530 242.2  23.4
2023-06-19 00:12:06 #01111                46.5 18.6    ?   818 242.9  23.4
2023-06-19 00:14:57 #01111               107.2  5.0    ?  1522 243.6  23.4

2023-06-19 01:39:33 #01111                 8.3  5.1    ?  1530 264.8  23.5
2023-06-19 01:42:25 #01111                69.0 18.6    ?   818 265.5  23.5
2023-06-19 01:45:16 #01111               129.7  5.0    ?  1522 266.2  23.5

2023-06-19 03:09:52 #01111                30.9  5.1    ?  1531 287.4  23.5
2023-06-19 03:12:44 #01111                91.6 18.6    ?   818 288.1  23.5
2023-06-19 03:15:35 #01111               152.3  5.0    ?  1522 288.8  23.5

2023-06-19 04:40:11 #01111                53.5  5.0    ?  1531 309.9  23.5
2023-06-19 04:43:03 #01111               114.2 18.6    ?   818 310.6  23.5
2023-06-19 04:45:54 #01111               174.9  5.0    ?  1522 311.4  23.5

2023-06-19 06:10:30 #01111                76.0  5.0    ?  1531 332.5  23.5
2023-06-19 06:13:22 #01111               136.7 18.6    ?   818 333.2  23.5
2023-06-19 06:16:13 #01111               197.5  5.0    ?  1521 333.9  23.5

2023-06-19 07:40:49 #01111                98.6  5.0    ?  1531 355.1  23.5
2023-06-19 07:43:41 #01111               159.3 18.6    ?   818 355.8  23.5
2023-06-19 07:46:32 #01111               220.0  5.0    ?  1521 356.5  23.5

2023-06-19 09:11:08 #01111               121.2  5.0    ?  1531  17.7  23.5
2023-06-19 09:14:00 #01111               181.9 18.6    ?   818  18.4  23.5
2023-06-19 09:16:51 #01111               242.6  5.0    ?  1521  19.1  23.5

2023-06-19 10:41:27 #01111               143.8  5.0    ?  1531  40.2  23.5
2023-06-19 10:44:19 #01111               204.4 18.6    ?   818  40.9  23.5
2023-06-19 10:47:10 #01111               265.2  5.0    ?  1521  41.7  23.5

2023-06-19 12:11:46 #01111               166.3  5.0    ?  1531  62.8  23.5
2023-06-19 12:14:38 #01111               227.0 18.6    ?   818  63.5  23.5
2023-06-19 12:17:29 #01111               287.8  5.0    ?  1521  64.2  23.5

2023-06-19 13:42:05 #01111               188.9  5.0    ?  1532  85.4  23.5
2023-06-19 13:44:57 #01111               249.6 18.6    ?   818  86.1  23.5
2023-06-19 13:47:48 #01111               310.3  5.0    ?  1521  86.8  23.5

2023-06-19 15:12:24 #01111               211.5  5.0    ?  1532 108.0  23.5
2023-06-19 15:15:16 #01111               272.1 18.6    ?   818 108.7  23.5
2023-06-19 15:18:07 #01111               332.9  5.0    ?  1520 109.4  23.5

2023-06-19 16:42:43 #01111               234.1  5.0    ?  1532 130.5  23.5
2023-06-19 16:45:35 #01111               294.7 18.6    ?   818 131.3  23.5
2023-06-19 16:48:26 #01111               355.5  5.0    ?  1520 132.0  23.5

2023-06-19 18:13:02 #01111               256.6  5.0    ?  1532 153.1  23.5
2023-06-19 18:15:54 #01111               317.3 18.6    ?   818 153.8  23.5
2023-06-19 18:18:45 #01111                18.1  5.0    ?  1520 154.5  23.5

2023-06-19 19:43:21 #01111               279.2  5.0    ?  1532 175.7  23.5
2023-06-19 19:46:13 #01111               339.8 18.6    ?   818 176.4  23.5
2023-06-19 19:49:04 #01111                40.6  5.0    ?  1520 177.1  23.5

2023-06-19 21:13:40 #01111               301.8  5.0    ?  1532 198.3  23.5
2023-06-19 21:16:32 #01111                 2.4 18.6    ?   818 199.0  23.5
2023-06-19 21:19:23 #01111                63.2  5.0    ?  1520 199.7  23.5

2023-06-19 22:43:59 #01111               324.4  5.0    ?  1532 220.8  23.5
2023-06-19 22:46:51 #01111                25.0 18.6    ?   818 221.6  23.5
2023-06-19 22:49:42 #01111                85.8  5.0    ?  1520 222.3  23.5

2023-06-20 00:14:18 #01111               346.9  5.0    ?  1533 243.4  23.5
2023-06-20 00:17:10 #01111                47.5 18.6    ?   818 244.1  23.5
2023-06-20 00:20:01 #01111               108.4  5.0    ?  1520 244.8  23.5

2023-06-20 01:44:37 #01111                 9.5  5.0    ?  1533 266.0  23.5
2023-06-20 01:47:29 #01111                70.1 18.6    ?   818 266.7  23.5
2023-06-20 01:50:20 #01111               130.9  5.0    ?  1520 267.4  23.5

2023-06-20 03:14:56 #01111                32.1  5.0    ?  1533 288.6  23.5
2023-06-20 03:17:48 #01111                92.7 18.6    ?   818 289.3  23.5
2023-06-20 03:20:39 #01111               153.5  5.0    ?  1519 290.0  23.5

2023-06-20 04:45:15 #01111                54.7  5.0    ?  1533 311.1  23.5
2023-06-20 04:48:07 #01111               115.2 18.6    ?   818 311.9  23.5
2023-06-20 04:50:58 #01111               176.1  5.0    ?  1519 312.6  23.5

2023-06-20 06:15:34 #01111                77.2  5.0    ?  1533 333.7  23.5
2023-06-20 06:18:26 #01111               137.8 18.6    ?   818 334.4  23.5
2023-06-20 06:21:17 #01111               198.7  5.0    ?  1519 335.1  23.5

2023-06-20 07:45:54 #01111               100.0  5.1    ?  1527 356.3  23.5
2023-06-20 07:48:45 #01111               160.4 18.6    ?   818 357.0  23.5
2023-06-20 07:51:36 #01111               221.3  5.0    ?  1519 357.7  23.5

2023-06-20 09:16:13 #01111               122.5  5.1    ?  1527  18.9  23.5
2023-06-20 09:19:04 #01111               182.9 18.6    ?   818  19.6  23.5
2023-06-20 09:21:55 #01111               243.8  5.0    ?  1519  20.3  23.5

2023-06-20 10:46:32 #01111               145.1  5.1    ?  1527  41.4  23.5
2023-06-20 10:49:23 #01111               205.5 18.5    ?   818  42.2  23.5
2023-06-20 10:52:14 #01111               266.4  5.0    ?  1519  42.9  23.5

2023-06-20 12:16:51 #01111               167.7  5.1    ?  1527  64.0  23.5
2023-06-20 12:19:42 #01111               228.1 18.5    ?   818  64.7  23.5
2023-06-20 12:22:33 #01111               289.0  5.0    ?  1519  65.4  23.5

2023-06-20 13:47:10 #01111               190.3  5.1    ?  1527  86.6  23.5
2023-06-20 13:50:01 #01111               250.6 18.5    ?   818  87.3  23.5
2023-06-20 13:52:52 #01111               311.6  5.0    ?  1519  88.0  23.5

2023-06-20 15:17:29 #01111               212.8  5.1    ?  1527 109.2  23.5
2023-06-20 15:20:20 #01111               273.2 18.5    ?   818 109.9  23.5
2023-06-20 15:23:11 #01111               334.1  5.0    ?  1519 110.6  23.5

2023-06-20 16:47:48 #01111               235.4  5.1    ?  1527 131.8  23.5
2023-06-20 16:50:39 #01111               295.8 18.5    ?   818 132.5  23.5
2023-06-20 16:53:30 #01111               356.7  5.0    ?  1519 133.2  23.5

2023-06-20 18:18:07 #01111               258.0  5.1    ?  1527 154.3  23.5
2023-06-20 18:20:58 #01111               318.4 18.5    ?   818 155.0  23.5
2023-06-20 18:23:49 #01111                19.3  5.0    ?  1518 155.8  23.5

2023-06-20 19:48:26 #01111               280.6  5.1    ?  1528 176.9  23.5
2023-06-20 19:51:17 #01111               340.9 18.5    ?   818 177.6  23.5
2023-06-20 19:54:08 #01111                41.9  5.0    ?  1518 178.3  23.5

2023-06-20 21:18:45 #01111               303.2  5.1    ?  1528 199.5  23.5
2023-06-20 21:21:36 #01111                 3.5 18.5    ?   818 200.2  23.5
2023-06-20 21:24:27 #01111                64.4  5.0    ?  1518 200.9  23.5

2023-06-20 22:49:04 #01111               325.7  5.0    ?  1528 222.1  23.5
2023-06-20 22:51:55 #01111                26.1 18.5    ?   818 222.8  23.5
2023-06-20 22:54:46 #01111                87.0  5.0    ?  1518 223.5  23.5

2023-06-21 00:19:23 #01111               348.3  5.0    ?  1528 244.6  23.5
2023-06-21 00:22:14 #01111                48.6 18.5    ?   818 245.3  23.5
2023-06-21 00:25:05 #01111               109.6  5.0    ?  1518 246.1  23.5

2023-06-21 01:49:42 #01111                10.9  5.0    ?  1528 267.2  23.5
2023-06-21 01:52:33 #01111                71.2 18.5    ?   818 267.9  23.5
2023-06-21 01:55:24 #01111               132.2  5.0    ?  1518 268.6  23.5

2023-06-21 03:20:01 #01111                33.5  5.0    ?  1528 289.8  23.5
2023-06-21 03:22:52 #01111                93.8 18.5    ?   818 290.5  23.5
2023-06-21 03:25:43 #01111               154.8  5.0    ?  1518 291.2  23.5

2023-06-21 04:50:20 #01111                56.0  5.0    ?  1528 312.4  23.5
2023-06-21 04:53:11 #01111               116.4 18.5    ?   818 313.1  23.5
2023-06-21 04:56:02 #01111               177.3  5.0    ?  1518 313.8  23.5

2023-06-21 06:20:39 #01111                78.6  5.0    ?  1528 334.9  23.5
2023-06-21 06:23:30 #01111               138.9 18.5    ?   817 335.6  23.5
2023-06-21 06:26:21 #01111               199.9  5.0    ?  1518 336.4  23.5

2023-06-21 07:50:58 #01111               101.2  5.0    ?  1528 357.5  23.5
2023-06-21 07:53:50 #01111               162.1 18.5    ?   817 358.2  23.5
2023-06-21 07:56:40 #01111               222.5  5.0    ?  1518 358.9  23.5

2023-06-21 09:21:17 #01111               123.8  5.0    ?  1528  20.1  23.5
2023-06-21 09:24:09 #01111               184.7 18.5    ?   817  20.8  23.5
2023-06-21 09:26:59 #01111               245.1  5.0    ?  1518  21.5  23.5

2023-06-21 10:51:36 #01111               146.3  5.0    ?  1528  42.7  23.5
2023-06-21 10:54:28 #01111               207.2 18.5    ?   817  43.4  23.5
2023-06-21 10:57:18 #01111               267.6  5.0    ?  1518  44.1  23.5

2023-06-21 12:21:55 #01111               168.9  5.0    ?  1528  65.2  23.5
2023-06-21 12:24:47 #01111               229.8 18.5    ?   817  66.0  23.5
2023-06-21 12:27:37 #01111               290.2  5.0    ?  1518  66.7  23.5

2023-06-21 13:52:14 #01111               191.5  5.0    ?  1528  87.8  23.5
2023-06-21 13:55:06 #01111               252.4 18.5    ?   817  88.5  23.5
2023-06-21 13:57:56 #01111               312.8  5.0    ?  1518  89.2  23.5

2023-06-21 15:22:33 #01111               214.1  5.0    ?  1528 110.4  23.5
2023-06-21 15:25:25 #01111               275.0 18.5    ?   817 111.1  23.5
2023-06-21 15:28:15 #01111               335.4  5.0    ?  1518 111.8  23.5

2023-06-21 16:52:52 #01111               236.7  5.0    ?  1528 133.0  23.5
2023-06-21 16:55:44 #01111               297.5 18.5    ?   817 133.7  23.5
2023-06-21 16:58:34 #01111               358.0  5.0    ?  1518 134.4  23.5

2023-06-21 18:23:11 #01111               259.2  5.0    ?  1528 155.5  23.5
2023-06-21 18:26:03 #01111               320.1 18.5    ?   817 156.3  23.5
2023-06-21 18:28:53 #01111                20.5  5.0    ?  1518 157.0  23.5

2023-06-21 19:53:30 #01111               281.8  5.0    ?  1528 178.1  23.5
2023-06-21 19:56:22 #01111               342.7 18.5    ?   817 178.8  23.5
2023-06-21 19:59:12 #01111                43.1  5.0    ?  1517 179.5  23.5

2023-06-21 21:23:49 #01111               304.4  5.0    ?  1528 200.7  23.5
2023-06-21 21:26:41 #01111                 5.3 18.5    ?   817 201.4  23.5
2023-06-21 21:29:31 #01111                65.7  5.0    ?  1517 202.1  23.5

2023-06-21 22:54:08 #01111               327.0  5.0    ?  1528 223.3  23.5
2023-06-21 22:57:00 #01111                27.8 18.5    ?   817 224.0  23.5
2023-06-21 22:59:50 #01111                88.3  5.0    ?  1517 224.7  23.5

2023-06-22 00:24:27 #01111               349.5  5.0    ?  1529 245.8  23.5
2023-06-22 00:27:19 #01111                50.4 18.5    ?   817 246.6  23.5
2023-06-22 00:30:09 #01111               110.9  5.0    ?  1517 247.3  23.5

2023-06-22 01:54:46 #01111                12.1  5.0    ?  1529 268.4  23.5
2023-06-22 01:57:38 #01111                73.0 18.5    ?   817 269.1  23.5
2023-06-22 02:00:28 #01111               133.4  5.0    ?  1517 269.8  23.5

2023-06-22 03:25:05 #01111                34.7  5.0    ?  1529 291.0  23.5
2023-06-22 03:27:57 #01111                95.6 18.5    ?   817 291.7  23.5
2023-06-22 03:30:47 #01111               156.0  5.0    ?  1517 292.4  23.5

2023-06-22 04:55:24 #01111                57.3  5.0    ?  1529 313.6  23.5
2023-06-22 04:58:16 #01111               118.1 18.5    ?   817 314.3  23.5
2023-06-22 05:01:06 #01111               178.6  5.0    ?  1517 315.0  23.5

