ADCS_n_Propulsion/Orbital pass data/90d_lat30.txt

Satellite passes / Orbitron 3.71 / www.stoff.pl

Location      : Picked Site (81.7205° W, 29.7115° N)
Time zone     : UTC +2:00
Search period : 2023-06-05 15:46:40 - 90 days
                2023-09-03 15:46:40
Conditions    : Maximum sun elevation = None
                Minimum sat elevation = 5 deg
                Illumination NOT required

Time                Satellite              Azm  Elv  Mag Range S.Azm S.Elv
--------------------------------------------------------------------------
2023-06-06 02:19:03 #01111                33.2  5.1    ?  1499 296.1   0.7
2023-06-06 02:21:56 #01111                97.0 21.3    ?   718 296.5   0.2
2023-06-06 02:24:48 #01111               161.5  5.0    ?  1482 296.8  -0.8

2023-06-06 13:51:23 #01111               142.8  5.1    ?  1486  72.8  16.4
2023-06-06 13:54:19 #01111                75.8 24.5    ?   653  73.2  17.0
2023-06-06 13:57:17 #01111                 9.5  5.1    ?  1509  73.5  17.6

2023-06-07 02:23:59 #01111                28.5  5.0    ?  1503 296.8  -0.6
2023-06-07 02:27:00 #01111                97.8 26.6    ?   607 297.1  -1.2
2023-06-07 02:29:58 #01111               167.3  5.0    ?  1477 297.5  -1.8

2023-06-07 13:56:18 #01111               148.6  5.0    ?  1492  73.2  17.4
2023-06-07 13:59:21 #01111                76.4 30.9    ?   547  73.6  18.0
2023-06-07 14:02:25 #01111                 5.1  5.1    ?  1508  73.9  18.7

2023-06-08 02:28:58 #01111                24.1  5.1    ?  1496 297.5  -1.5
2023-06-08 02:32:04 #01111                99.0 34.0    ?   501 297.8  -2.1
2023-06-08 02:35:06 #01111               173.0  5.1    ?  1472 298.2  -2.7

2023-06-08 14:01:16 #01111               154.1  5.1    ?  1489  73.7  18.4
2023-06-08 14:04:23 #01111                77.0 40.0    ?   450  74.0  19.1
2023-06-08 14:07:32 #01111                 0.9  5.1    ?  1511  74.3  19.7

2023-06-09 02:33:57 #01111                19.8  5.0    ?  1498 298.1  -2.3
2023-06-09 02:37:07 #01111                99.7 44.7    ?   407 298.5  -2.9
2023-06-09 02:40:13 #01111               178.6  5.0    ?  1473 298.9  -3.5

2023-06-09 14:06:15 #01111               159.5  5.1    ?  1489  74.1  19.5
2023-06-09 14:09:25 #01111                77.7 53.3    ?   367  74.4  20.1
2023-06-09 14:12:38 #01111               356.8  5.0    ?  1516  74.7  20.8

2023-06-10 02:38:58 #01111                15.7  5.1    ?  1494 298.8  -3.2
2023-06-10 02:42:09 #01111                98.7 60.6    ?   333 299.2  -3.8
2023-06-10 02:45:18 #01111               184.1  5.0    ?  1472 299.7  -4.4

2023-06-10 14:11:15 #01111               164.9  5.0    ?  1493  74.5  20.5
2023-06-10 14:14:27 #01111                78.9 72.5    ?   312  74.8  21.2
2023-06-10 14:17:42 #01111               352.7  5.0    ?  1516  75.1  21.8

2023-06-11 02:44:00 #01111                11.5  5.1    ?  1490 299.5  -4.1
2023-06-11 02:47:12 #01111               102.0 82.7    ?   294 299.9  -4.7
2023-06-11 02:50:21 #01111               189.5  5.0    ?  1469 300.4  -5.3

2023-06-11 14:16:17 #01111               170.3  5.1    ?  1492  74.9  21.5
2023-06-11 14:19:29 #01111               254.8 83.8    ?   300  75.2  22.2
2023-06-11 14:22:45 #01111               348.7  5.0    ?  1517  75.6  22.9

2023-06-12 02:49:02 #01111                 7.4  5.0    ?  1494 300.2  -5.0
2023-06-12 02:52:14 #01111               281.2 73.0    ?   303 300.7  -5.6
2023-06-12 02:55:22 #01111               194.9  5.1    ?  1464 301.1  -6.1

2023-06-12 14:21:20 #01111               175.6  5.1    ?  1494  75.3  22.6
2023-06-12 14:24:32 #01111               260.9 61.9    ?   337  75.7  23.3
2023-06-12 14:27:46 #01111               344.6  5.1    ?  1514  76.0  23.9

2023-06-13 02:54:06 #01111                 3.3  5.0    ?  1491 300.9  -5.8
2023-06-13 02:57:16 #01111               281.5 53.3    ?   358 301.4  -6.4
2023-06-13 03:00:22 #01111               200.4  5.1    ?  1463 301.8  -7.0

2023-06-13 14:26:24 #01111               181.0  5.0    ?  1499  75.8  23.6
2023-06-13 14:29:34 #01111               260.4 45.9    ?   409  76.1  24.3
2023-06-13 14:32:46 #01111               340.4  5.1    ?  1512  76.4  25.0

2023-06-14 02:59:11 #01111               359.1  5.0    ?  1488 301.6  -6.7
2023-06-14 03:02:17 #01111               282.9 39.7    ?   440 302.1  -7.3
2023-06-14 03:05:20 #01111               205.9  5.1    ?  1460 302.5  -7.8

2023-06-14 14:31:30 #01111               186.5  5.0    ?  1501  76.2  24.7
2023-06-14 14:34:37 #01111               261.7 34.9    ?   501  76.5  25.3
2023-06-14 14:37:45 #01111               336.2  5.1    ?  1513  76.8  26.0

2023-06-15 03:04:17 #01111               354.8  5.0    ?  1487 302.4  -7.6
2023-06-15 03:07:18 #01111               283.6 30.5    ?   538 302.8  -8.1
2023-06-15 03:10:17 #01111               211.5  5.0    ?  1463 303.2  -8.7

2023-06-15 14:36:38 #01111               192.1  5.0    ?  1499  76.6  25.7
2023-06-15 14:39:39 #01111               261.7 27.4    ?   605  76.9  26.4
2023-06-15 14:42:43 #01111               331.9  5.0    ?  1518  77.2  27.0

2023-06-16 03:09:24 #01111               350.4  5.0    ?  1486 303.1  -8.4
2023-06-16 03:12:19 #01111               284.1 24.1    ?   643 303.5  -9.0
2023-06-16 03:15:11 #01111               217.4  5.1    ?  1457 303.9  -9.5

2023-06-16 14:41:47 #01111               197.9  5.0    ?  1502  77.1  26.8
2023-06-16 14:44:42 #01111               262.6 21.9    ?   715  77.4  27.4
2023-06-16 14:47:38 #01111               327.3  5.1    ?  1513  77.7  28.0

2023-06-17 03:14:33 #01111               345.7  5.0    ?  1482 303.8  -9.3
2023-06-17 03:17:20 #01111               284.4 19.4    ?   753 304.2  -9.8
2023-06-17 03:20:04 #01111               223.3  5.1    ?  1459 304.6 -10.3

2023-06-17 13:19:26 #01111                90.7  5.0    ?  1511  68.5   9.7
2023-06-17 13:20:29 #01111                71.7  6.0    ?  1434  68.6  10.0
2023-06-17 13:21:33 #01111                52.4  5.0    ?  1515  68.7  10.2

2023-06-17 14:46:58 #01111               203.9  5.0    ?  1505  77.6  27.8
2023-06-17 14:49:45 #01111               263.4 17.8    ?   830  77.8  28.4
2023-06-17 14:52:32 #01111               322.5  5.1    ?  1513  78.1  29.0

2023-06-18 01:51:53 #01111                76.5  5.0    ?  1472 293.3   6.6
2023-06-18 01:52:48 #01111                93.5  5.7    ?  1410 293.4   6.5
2023-06-18 01:53:43 #01111               110.6  5.0    ?  1465 293.5   6.3

2023-06-18 03:19:43 #01111               340.9  5.0    ?  1481 304.5 -10.2
2023-06-18 03:22:20 #01111               285.2 15.8    ?   866 304.9 -10.7
2023-06-18 03:24:55 #01111               229.5  5.0    ?  1462 305.3 -11.1

2023-06-18 13:23:51 #01111               102.6  5.0    ?  1511  68.9  10.6
2023-06-18 13:25:29 #01111                72.2  7.6    ?  1319  69.1  10.9
2023-06-18 13:27:07 #01111                42.0  5.0    ?  1517  69.3  11.3

2023-06-18 14:52:12 #01111               210.3  5.0    ?  1504  78.0  28.9
2023-06-18 14:54:47 #01111               263.6 14.5    ?   946  78.3  29.5
2023-06-18 14:57:24 #01111               317.3  5.0    ?  1515  78.5  30.0

2023-06-19 01:56:18 #01111                64.4  5.0    ?  1472 293.8   5.8
2023-06-19 01:57:51 #01111                94.1  7.4    ?  1288 293.9   5.5
2023-06-19 01:59:24 #01111               123.9  5.0    ?  1460 294.1   5.2

2023-06-19 03:24:56 #01111               335.4  5.1    ?  1475 305.3 -11.1
2023-06-19 03:27:20 #01111               285.8 12.9    ?   980 305.7 -11.5
2023-06-19 03:29:42 #01111               236.3  5.1    ?  1457 306.0 -11.9

2023-06-19 13:28:28 #01111               111.4  5.0    ?  1509  69.4  11.5
2023-06-19 13:30:28 #01111                73.1  9.4    ?  1203  69.6  11.9
2023-06-19 13:32:29 #01111                34.6  5.0    ?  1515  69.8  12.3

2023-06-19 14:57:28 #01111               217.2  5.0    ?  1507  78.5  30.0
2023-06-19 14:59:50 #01111               264.3 11.9    ?  1065  78.7  30.5
2023-06-19 15:02:13 #01111               311.6  5.0    ?  1515  79.0  31.0

2023-06-20 02:00:57 #01111                56.2  5.0    ?  1470 294.3   5.0
2023-06-20 02:02:54 #01111                94.7  9.2    ?  1168 294.5   4.6
2023-06-20 02:04:51 #01111               133.6  5.0    ?  1457 294.7   4.2

2023-06-20 03:30:11 #01111               329.5  5.0    ?  1473 306.1 -11.9
2023-06-20 03:32:19 #01111               286.8 10.6    ?  1095 306.4 -12.3
2023-06-20 03:34:27 #01111               243.5  5.0    ?  1459 306.7 -12.7

2023-06-20 13:33:10 #01111               119.1  5.0    ?  1509  69.9  12.4
2023-06-20 13:35:28 #01111                73.6 11.5    ?  1088  70.1  12.9
2023-06-20 13:37:46 #01111                28.4  5.0    ?  1514  70.4  13.3

2023-06-20 15:02:49 #01111               225.0  5.0    ?  1504  79.0  31.1
2023-06-20 15:04:53 #01111               265.0  9.7    ?  1184  79.2  31.5
2023-06-20 15:06:58 #01111               305.1  5.0    ?  1513  79.4  32.0

2023-06-21 02:05:41 #01111                49.3  5.0    ?  1472 294.8   4.1
2023-06-21 02:07:57 #01111                95.5 11.4    ?  1048 295.1   3.7
2023-06-21 02:10:11 #01111               141.5  5.0    ?  1453 295.4   3.3

2023-06-21 03:35:30 #01111               322.5  5.0    ?  1470 306.8 -12.8
2023-06-21 03:37:19 #01111               287.1  8.6    ?  1210 307.1 -13.1
2023-06-21 03:39:07 #01111               251.8  5.0    ?  1460 307.4 -13.5

2023-06-21 13:37:56 #01111               125.9  5.0    ?  1507  70.4  13.3
2023-06-21 13:40:28 #01111                74.2 13.9    ?   974  70.6  13.8
2023-06-21 13:43:00 #01111                22.9  5.0    ?  1515  70.9  14.4

2023-06-21 15:08:15 #01111               234.1  5.0    ?  1506  79.5  32.2
2023-06-21 15:09:56 #01111               265.7  7.8    ?  1304  79.7  32.6
2023-06-21 15:11:38 #01111               297.4  5.0    ?  1514  79.8  32.9

2023-06-22 02:10:30 #01111                43.5  5.1    ?  1467 295.4   3.3
2023-06-22 02:12:59 #01111                95.9 14.0    ?   930 295.7   2.8
2023-06-22 02:15:27 #01111               148.7  5.0    ?  1450 296.0   2.3

2023-06-22 03:40:55 #01111               314.0  5.0    ?  1471 307.6 -13.7
2023-06-22 03:42:17 #01111               288.1  6.8    ?  1325 307.9 -14.0
2023-06-22 03:43:39 #01111               262.1  5.0    ?  1459 308.1 -14.2

2023-06-22 13:42:45 #01111               132.1  5.1    ?  1503  70.9  14.3
2023-06-22 13:45:27 #01111                75.2 16.9    ?   860  71.1  14.8
2023-06-22 13:48:11 #01111                17.9  5.0    ?  1514  71.4  15.4

2023-06-22 15:13:52 #01111               246.0  5.0    ?  1509  80.1  33.4
2023-06-22 15:14:59 #01111               266.3  6.1    ?  1425  80.2  33.6
2023-06-22 15:16:06 #01111               286.5  5.0    ?  1513  80.3  33.8

2023-06-23 02:15:21 #01111                38.2  5.1    ?  1465 295.9   2.4
2023-06-23 02:18:01 #01111                96.5 17.1    ?   813 296.2   1.9
2023-06-23 02:20:40 #01111               155.4  5.0    ?  1448 296.6   1.4

2023-06-23 03:46:41 #01111               299.5  5.0    ?  1467 308.5 -14.7
2023-06-23 03:47:16 #01111               288.7  5.3    ?  1440 308.6 -14.8
2023-06-23 03:47:51 #01111               277.9  5.0    ?  1463 308.7 -14.9

2023-06-23 13:47:35 #01111               138.2  5.0    ?  1508  71.4  15.2
2023-06-23 13:50:27 #01111                75.8 20.6    ?   748  71.7  15.8
2023-06-23 13:53:20 #01111                13.2  5.0    ?  1513  72.0  16.4

2023-06-24 02:20:14 #01111                33.2  5.1    ?  1463 296.5   1.5
2023-06-24 02:23:03 #01111                97.3 21.2    ?   698 296.8   1.1
2023-06-24 02:25:50 #01111               161.6  5.1    ?  1445 297.2   0.6

2023-06-24 13:52:28 #01111               143.9  5.0    ?  1505  71.9  16.2
2023-06-24 13:55:27 #01111                76.4 25.5    ?   639  72.2  16.8
2023-06-24 13:58:27 #01111                 8.8  5.0    ?  1511  72.5  17.4

2023-06-25 02:25:08 #01111                28.4  5.0    ?  1466 297.0   0.7
2023-06-25 02:28:04 #01111                97.6 26.6    ?   588 297.4   0.2
2023-06-25 02:30:58 #01111               167.5  5.1    ?  1442 297.8  -0.8

2023-06-25 13:57:22 #01111               149.5  5.0    ?  1506  72.4  17.1
2023-06-25 14:00:27 #01111                77.1 32.1    ?   535  72.7  17.7
2023-06-25 14:03:33 #01111                 4.5  5.0    ?  1513  73.0  18.4

2023-06-26 02:30:04 #01111                24.0  5.0    ?  1465 297.6  -0.6
2023-06-26 02:33:06 #01111                99.1 34.1    ?   483 298.0  -1.2
2023-06-26 02:36:05 #01111               173.4  5.0    ?  1448 298.4  -1.8

2023-06-26 14:02:18 #01111               154.9  5.0    ?  1505  72.9  18.1
2023-06-26 14:05:27 #01111                77.9 41.5    ?   439  73.2  18.7
2023-06-26 14:08:37 #01111                 0.4  5.0    ?  1510  73.5  19.4

2023-06-27 02:35:01 #01111                19.6  5.0    ?  1465 298.2  -1.6
2023-06-27 02:38:06 #01111                98.7 45.2    ?   390 298.6  -2.2
2023-06-27 02:41:09 #01111               179.0  5.0    ?  1444 298.9  -2.7

2023-06-27 14:07:16 #01111               160.2  5.1    ?  1499  73.4  19.0
2023-06-27 14:10:27 #01111                78.9 55.3    ?   359  73.7  19.7
2023-06-27 14:13:40 #01111               356.3  5.0    ?  1509  74.1  20.4

2023-06-28 02:40:00 #01111                15.4  5.1    ?  1460 298.7  -2.5
2023-06-28 02:43:07 #01111               100.4 61.9    ?   318 299.1  -3.1
2023-06-28 02:46:11 #01111               184.5  5.1    ?  1439 299.5  -3.7

2023-06-28 14:12:14 #01111               165.5  5.0    ?  1503  73.9  20.0
2023-06-28 14:15:27 #01111                81.5 75.1    ?   308  74.3  20.7
2023-06-28 14:18:41 #01111               352.3  5.1    ?  1504  74.6  21.4

2023-06-29 02:44:59 #01111                11.2  5.0    ?  1462 299.3  -3.4
2023-06-29 02:48:07 #01111               100.3 84.9    ?   283 299.7  -4.0
2023-06-29 02:51:12 #01111               190.0  5.1    ?  1439 300.1  -4.6

2023-06-29 14:17:15 #01111               170.8  5.1    ?  1495  74.5  21.0
2023-06-29 14:20:28 #01111               262.5 81.3    ?   301  74.8  21.7
2023-06-29 14:23:41 #01111               348.2  5.1    ?  1500  75.1  22.3

2023-06-30 02:50:00 #01111                 7.0  5.1    ?  1458 299.9  -4.4
2023-06-30 02:53:07 #01111               280.7 70.5    ?   299 300.3  -5.0
2023-06-30 02:56:12 #01111               195.5  5.0    ?  1444 300.7  -5.5

2023-06-30 14:22:16 #01111               176.1  5.0    ?  1498  75.0  22.0
2023-06-30 14:25:28 #01111               260.2 59.9    ?   341  75.3  22.7
2023-06-30 14:28:40 #01111               344.1  5.1    ?  1498  75.7  23.3

2023-07-01 02:55:01 #01111                 2.8  5.0    ?  1461 300.5  -5.3
2023-07-01 02:58:06 #01111               282.8 51.2    ?   357 300.9  -5.9
2023-07-01 03:01:10 #01111               200.9  5.0    ?  1446 301.3  -6.5

2023-07-01 14:27:19 #01111               181.5  5.1    ?  1496  75.6  23.0
2023-07-01 14:30:28 #01111               260.3 44.4    ?   415  75.9  23.6
2023-07-01 14:33:38 #01111               339.9  5.1    ?  1499  76.2  24.3

2023-07-02 03:00:04 #01111               358.5  5.0    ?  1458 301.1  -6.3
2023-07-02 03:03:06 #01111               282.1 38.1    ?   442 301.5  -6.8
2023-07-02 03:06:06 #01111               206.5  5.0    ?  1446 301.9  -7.4

2023-07-02 14:32:23 #01111               187.0  5.0    ?  1497  76.1  24.0
2023-07-02 14:35:29 #01111               261.7 33.9    ?   508  76.5  24.6
2023-07-02 14:38:34 #01111               335.6  5.1    ?  1495  76.8  25.3

2023-07-03 03:05:08 #01111               354.1  5.1    ?  1455 301.7  -7.2
2023-07-03 03:08:05 #01111               282.9 29.4    ?   541 302.1  -7.8
2023-07-03 03:11:00 #01111               212.1  5.0    ?  1444 302.5  -8.3

2023-07-03 14:37:29 #01111               192.6  5.0    ?  1495  76.7  25.0
2023-07-03 14:40:29 #01111               261.9 26.6    ?   612  77.0  25.6
2023-07-03 14:43:29 #01111               331.2  5.1    ?  1495  77.3  26.2

2023-07-04 03:10:13 #01111               349.6  5.1    ?  1455 302.3  -8.2
2023-07-04 03:13:03 #01111               284.1 23.3    ?   647 302.7  -8.7
2023-07-04 03:15:53 #01111               217.8  5.0    ?  1447 303.1  -9.2

2023-07-04 14:42:37 #01111               198.5  5.1    ?  1491  77.3  26.0
2023-07-04 14:45:29 #01111               262.2 21.3    ?   721  77.6  26.6
2023-07-04 14:48:22 #01111               326.6  5.1    ?  1492  77.9  27.2

2023-07-05 03:15:19 #01111               345.0  5.0    ?  1457 302.9  -9.1
2023-07-05 03:18:02 #01111               284.3 18.8    ?   756 303.3  -9.6
2023-07-05 03:20:43 #01111               223.9  5.1    ?  1444 303.7 -10.1

2023-07-05 13:20:15 #01111                89.8  5.0    ?  1494  68.7   8.9
2023-07-05 13:21:14 #01111                71.9  5.9    ?  1425  68.8   9.1
2023-07-05 13:22:13 #01111                53.9  5.0    ?  1494  68.9   9.3

2023-07-05 14:47:46 #01111               204.5  5.0    ?  1494  77.9  27.0
2023-07-05 14:50:30 #01111               263.2 17.3    ?   835  78.2  27.6
2023-07-05 14:53:14 #01111               321.7  5.0    ?  1495  78.4  28.2

2023-07-06 01:52:39 #01111                78.3  5.0    ?  1453 292.4   6.9
2023-07-06 01:53:28 #01111                93.6  5.6    ?  1403 292.4   6.7
2023-07-06 01:54:18 #01111               109.3  5.0    ?  1450 292.5   6.6

2023-07-06 03:20:27 #01111               340.0  5.0    ?  1457 303.6 -10.1
2023-07-06 03:23:00 #01111               285.0 15.4    ?   869 304.0 -10.5
2023-07-06 03:25:32 #01111               230.1  5.0    ?  1449 304.3 -11.0

2023-07-06 13:24:37 #01111               102.1  5.0    ?  1494  69.3   9.7
2023-07-06 13:26:11 #01111                72.7  7.4    ?  1310  69.4  10.0
2023-07-06 13:27:45 #01111                43.2  5.0    ?  1491  69.6  10.3

2023-07-06 14:52:58 #01111               211.0  5.0    ?  1492  78.5  28.0
2023-07-06 14:55:30 #01111               263.5 14.1    ?   951  78.8  28.6
2023-07-06 14:58:03 #01111               316.4  5.0    ?  1494  79.0  29.1

2023-07-07 01:56:59 #01111                65.3  5.0    ?  1454 292.7   6.0
2023-07-07 01:58:29 #01111                94.3  7.2    ?  1283 292.9   5.7
2023-07-07 02:00:00 #01111               123.7  5.0    ?  1450 293.1   5.4

2023-07-07 03:25:37 #01111               334.6  5.0    ?  1457 304.2 -11.0
2023-07-07 03:27:57 #01111               286.0 12.6    ?   982 304.6 -11.5
2023-07-07 03:30:17 #01111               236.9  5.1    ?  1446 304.9 -11.9

2023-07-07 13:29:12 #01111               110.9  5.0    ?  1489  69.9  10.5
2023-07-07 13:31:09 #01111                73.1  9.2    ?  1196  70.1  10.9
2023-07-07 13:33:06 #01111                35.4  5.0    ?  1491  70.3  11.3

2023-07-07 14:58:13 #01111               218.1  5.0    ?  1490  79.1  29.1
2023-07-07 15:00:31 #01111               264.3 11.5    ?  1068  79.4  29.6
2023-07-07 15:02:49 #01111               310.5  5.0    ?  1491  79.6  30.1

2023-07-08 02:01:35 #01111                56.8  5.0    ?  1454 293.2   5.1
2023-07-08 02:03:30 #01111                95.0  9.1    ?  1163 293.4   4.7
2023-07-08 02:05:25 #01111               133.4  5.0    ?  1448 293.6   4.4

2023-07-08 03:30:50 #01111               328.6  5.0    ?  1455 304.9 -12.0
2023-07-08 03:32:55 #01111               286.4 10.3    ?  1096 305.2 -12.4
2023-07-08 03:35:00 #01111               244.1  5.0    ?  1451 305.5 -12.8

2023-07-08 13:33:52 #01111               118.6  5.0    ?  1488  70.4  11.4
2023-07-08 13:36:06 #01111                74.0 11.2    ?  1081  70.7  11.8
2023-07-08 13:38:21 #01111                29.0  5.0    ?  1490  70.9  12.3

2023-07-08 15:03:32 #01111               226.1  5.0    ?  1489  79.8  30.1
2023-07-08 15:05:31 #01111               264.7  9.3    ?  1187  80.0  30.6
2023-07-08 15:07:31 #01111               303.7  5.0    ?  1489  80.2  31.0

2023-07-09 02:06:17 #01111                49.8  5.0    ?  1454 293.6   4.2
2023-07-09 02:08:31 #01111                95.9 11.3    ?  1044 293.9   3.7
2023-07-09 02:10:44 #01111               141.6  5.0    ?  1450 294.1   3.3

2023-07-09 03:36:07 #01111               321.5  5.0    ?  1455 305.6 -13.0
2023-07-09 03:37:52 #01111               287.1  8.4    ?  1211 305.9 -13.3
2023-07-09 03:39:38 #01111               252.4  5.0    ?  1453 306.1 -13.6

2023-07-09 13:38:36 #01111               125.4  5.0    ?  1484  71.1  12.3
2023-07-09 13:41:04 #01111                74.4 13.6    ?   967  71.3  12.8
2023-07-09 13:43:32 #01111                23.5  5.0    ?  1486  71.6  13.3

2023-07-09 15:08:58 #01111               235.8  5.0    ?  1485  80.4  31.2
2023-07-09 15:10:32 #01111               265.5  7.4    ?  1306  80.6  31.5
2023-07-09 15:12:07 #01111               295.4  5.0    ?  1488  80.8  31.9

2023-07-10 02:11:03 #01111                43.9  5.1    ?  1454 294.0   3.2
2023-07-10 02:13:31 #01111                96.5 13.9    ?   927 294.3   2.8
2023-07-10 02:15:58 #01111               148.8  5.0    ?  1449 294.6   2.3

2023-07-10 03:41:30 #01111               312.9  5.0    ?  1458 306.3 -14.0
2023-07-10 03:42:49 #01111               287.8  6.7    ?  1326 306.5 -14.2
2023-07-10 03:44:08 #01111               262.6  5.0    ?  1454 306.7 -14.5

2023-07-10 13:43:22 #01111               131.9  5.0    ?  1485  71.7  13.2
2023-07-10 13:46:02 #01111                74.9 16.5    ?   854  72.0  13.7
2023-07-10 13:48:41 #01111                18.4  5.0    ?  1485  72.2  14.2

2023-07-10 15:14:37 #01111               249.0  5.0    ?  1486  81.1  32.3
2023-07-10 15:15:33 #01111               266.2  5.7    ?  1426  81.2  32.5
2023-07-10 15:16:28 #01111               283.0  5.0    ?  1485  81.3  32.7

2023-07-11 02:15:51 #01111                38.3  5.0    ?  1457 294.5   2.3
2023-07-11 02:18:30 #01111                96.6 17.1    ?   811 294.8   1.8
2023-07-11 02:21:09 #01111               155.4  5.0    ?  1449 295.1   1.3

2023-07-11 13:48:11 #01111               137.8  5.0    ?  1481  72.3  14.1
2023-07-11 13:50:59 #01111                75.9 20.1    ?   742  72.6  14.6
2023-07-11 13:53:47 #01111                13.8  5.1    ?  1479  72.9  15.2

2023-07-12 02:20:42 #01111                33.4  5.1    ?  1454 294.9   1.4
2023-07-12 02:23:30 #01111                97.5 21.1    ?   698 295.3   0.9
2023-07-12 02:26:18 #01111               161.7  5.0    ?  1453 295.6   0.4

2023-07-12 13:53:02 #01111               143.6  5.1    ?  1476  72.9  15.0
2023-07-12 13:55:57 #01111                76.3 24.8    ?   633  73.2  15.6
2023-07-12 13:58:52 #01111                 9.3  5.0    ?  1478  73.5  16.2

2023-07-13 02:25:34 #01111                28.6  5.1    ?  1456 295.4   0.5
2023-07-13 02:28:29 #01111                98.0 26.5    ?   588 295.8   0.0
2023-07-13 02:31:24 #01111               167.6  5.0    ?  1453 296.1  -1.1

2023-07-13 13:57:54 #01111               149.2  5.0    ?  1476  73.6  15.9
2023-07-13 14:00:55 #01111                76.7 31.3    ?   529  73.9  16.5
2023-07-13 14:03:55 #01111                 4.9  5.1    ?  1473  74.2  17.1

2023-07-14 02:30:27 #01111                24.1  5.0    ?  1461 295.9  -1.0
2023-07-14 02:33:28 #01111                98.6 34.0    ?   485 296.3  -1.6
2023-07-14 02:36:28 #01111               173.4  5.1    ?  1452 296.6  -2.2

2023-07-14 14:02:48 #01111               154.6  5.1    ?  1472  74.2  16.8
2023-07-14 14:05:53 #01111                77.0 40.5    ?   433  74.5  17.5
2023-07-14 14:08:57 #01111                 0.7  5.1    ?  1472  74.9  18.1

2023-07-15 02:35:22 #01111                19.7  5.0    ?  1461 296.4  -2.0
2023-07-15 02:38:27 #01111                99.7 45.1    ?   393 296.8  -2.6
2023-07-15 02:41:31 #01111               179.0  5.0    ?  1457 297.2  -3.2

2023-07-15 14:07:43 #01111               160.0  5.0    ?  1471  74.9  17.8
2023-07-15 14:10:50 #01111                79.1 54.3    ?   352  75.2  18.4
2023-07-15 14:13:58 #01111               356.5  5.0    ?  1473  75.5  19.1

2023-07-16 02:40:18 #01111                15.5  5.0    ?  1462 296.9  -3.0
2023-07-16 02:43:25 #01111                99.4 61.5    ?   322 297.3  -3.7
2023-07-16 02:46:32 #01111               184.4  5.0    ?  1459 297.7  -4.3

2023-07-16 14:12:40 #01111               165.4  5.1    ?  1466  75.5  18.7
2023-07-16 14:15:48 #01111                80.4 74.1    ?   299  75.9  19.4
2023-07-16 14:18:57 #01111               352.4  5.0    ?  1469  76.2  20.0

2023-07-17 02:45:15 #01111                11.3  5.0    ?  1464 297.3  -4.1
2023-07-17 02:48:23 #01111                96.1 84.1    ?   286 297.8  -4.7
2023-07-17 02:51:31 #01111               189.8  5.0    ?  1460 298.2  -5.3

2023-07-17 14:17:38 #01111               170.7  5.1    ?  1463  76.2  19.7
2023-07-17 14:20:46 #01111               257.2 81.6    ?   290  76.5  20.3
2023-07-17 14:23:55 #01111               348.3  5.0    ?  1468  76.9  21.0

2023-07-18 02:50:13 #01111                 7.2  5.0    ?  1466 297.8  -5.1
2023-07-18 02:53:21 #01111               281.7 71.6    ?   300 298.3  -5.7
2023-07-18 02:56:29 #01111               195.2  5.0    ?  1464 298.7  -6.3

2023-07-18 14:22:37 #01111               176.1  5.1    ?  1463  76.9  20.6
2023-07-18 14:25:44 #01111               259.6 59.7    ?   330  77.2  21.3
2023-07-18 14:28:52 #01111               344.1  5.0    ?  1468  77.5  21.9

2023-07-19 02:55:13 #01111                 3.0  5.1    ?  1461 298.4  -6.2
2023-07-19 02:58:19 #01111               281.1 52.3    ?   357 298.8  -6.8
2023-07-19 03:01:25 #01111               200.5  5.0    ?  1466 299.2  -7.3

2023-07-19 14:27:37 #01111               181.5  5.0    ?  1466  77.6  21.6
2023-07-19 14:30:42 #01111               260.4 43.9    ?   403  77.9  22.2
2023-07-19 14:33:47 #01111               339.9  5.1    ?  1463  78.2  22.9

2023-07-20 03:00:13 #01111               358.8  5.1    ?  1464 298.9  -7.2
2023-07-20 03:03:16 #01111               282.3 39.2    ?   440 299.3  -7.8
2023-07-20 03:06:19 #01111               206.0  5.0    ?  1464 299.7  -8.4

2023-07-20 14:32:40 #01111               187.1  5.1    ?  1458  78.3  22.6
2023-07-20 14:35:40 #01111               261.0 33.3    ?   496  78.6  23.2
2023-07-20 14:38:41 #01111               335.5  5.1    ?  1461  78.9  23.8

2023-07-21 03:05:14 #01111               354.6  5.0    ?  1467 299.4  -8.3
2023-07-21 03:08:13 #01111               283.0 30.3    ?   537 299.8  -8.8
2023-07-21 03:11:12 #01111               211.5  5.0    ?  1468 300.3  -9.4

2023-07-21 14:37:43 #01111               192.8  5.0    ?  1461  79.0  23.5
2023-07-21 14:40:38 #01111               261.6 26.1    ?   600  79.3  24.2
2023-07-21 14:43:34 #01111               331.0  5.0    ?  1463  79.6  24.8

2023-07-22 03:10:16 #01111               350.2  5.0    ?  1472 300.0  -9.3
2023-07-22 03:13:10 #01111               283.4 24.1    ?   642 300.4  -9.9
2023-07-22 03:16:03 #01111               217.1  5.0    ?  1470 300.8 -10.4

2023-07-22 14:42:49 #01111               198.8  5.1    ?  1455  79.7  24.5
2023-07-22 14:45:36 #01111               262.2 20.8    ?   709  80.0  25.1
2023-07-22 14:48:25 #01111               326.3  5.0    ?  1462  80.3  25.7

2023-07-23 03:15:20 #01111               345.7  5.0    ?  1473 300.5 -10.4
2023-07-23 03:18:06 #01111               284.3 19.5    ?   751 300.9 -10.9
2023-07-23 03:20:52 #01111               222.9  5.0    ?  1471 301.3 -11.4

2023-07-23 13:20:40 #01111                83.9  5.0    ?  1461  70.9   7.3
2023-07-23 13:21:19 #01111                71.8  5.4    ?  1431  71.0   7.4
2023-07-23 13:21:58 #01111                59.7  5.0    ?  1461  71.1   7.5

2023-07-23 14:47:56 #01111               205.0  5.0    ?  1456  80.5  25.5
2023-07-23 14:50:35 #01111               263.3 16.8    ?   822  80.8  26.1
2023-07-23 14:53:14 #01111               321.3  5.0    ?  1461  81.1  26.7

2023-07-24 01:52:35 #01111                76.6  5.0    ?  1477 289.7   5.9
2023-07-24 01:53:31 #01111                93.9  5.8    ?  1415 289.8   5.8
2023-07-24 01:54:27 #01111               111.1  5.0    ?  1475 289.9   5.6

2023-07-24 03:20:26 #01111               340.8  5.1    ?  1471 301.1 -11.4
2023-07-24 03:23:02 #01111               285.0 16.0    ?   862 301.5 -11.9
2023-07-24 03:25:39 #01111               229.0  5.0    ?  1474 301.9 -12.4

2023-07-24 13:24:52 #01111                98.6  5.0    ?  1457  71.6   8.0
2023-07-24 13:26:14 #01111                72.5  6.9    ?  1317  71.8   8.3
2023-07-24 13:27:37 #01111                46.1  5.0    ?  1461  71.9   8.6

2023-07-24 14:53:06 #01111               211.7  5.0    ?  1454  81.3  26.6
2023-07-24 14:55:33 #01111               263.8 13.7    ?   937  81.5  27.1
2023-07-24 14:58:00 #01111               315.7  5.1    ?  1456  81.8  27.6

2023-07-25 01:56:56 #01111                64.6  5.0    ?  1477 290.0   5.0
2023-07-25 01:58:30 #01111                94.5  7.4    ?  1296 290.2   4.7
2023-07-25 02:00:05 #01111               124.6  5.0    ?  1478 290.4   4.3

2023-07-25 03:25:33 #01111               335.7  5.1    ?  1474 301.7 -12.5
2023-07-25 03:27:58 #01111               285.6 13.2    ?   975 302.0 -13.0
2023-07-25 03:30:24 #01111               235.3  5.0    ?  1479 302.4 -13.4

2023-07-25 13:29:22 #01111               108.3  5.0    ?  1454  72.3   8.8
2023-07-25 13:31:09 #01111                73.2  8.5    ?  1202  72.5   9.2
2023-07-25 13:32:57 #01111                37.8  5.0    ?  1457  72.7   9.6

2023-07-25 14:58:19 #01111               219.0  5.1    ?  1451  82.0  27.6
2023-07-25 15:00:31 #01111               264.2 11.2    ?  1054  82.3  28.1
2023-07-25 15:02:44 #01111               309.7  5.0    ?  1456  82.5  28.5

2023-07-26 02:01:30 #01111                56.3  5.0    ?  1479 290.4   4.0
2023-07-26 02:03:29 #01111                95.2  9.3    ?  1177 290.6   3.6
2023-07-26 02:05:28 #01111               134.1  5.0    ?  1480 290.8   3.2

2023-07-26 03:30:42 #01111               330.2  5.0    ?  1480 302.3 -13.6
2023-07-26 03:32:54 #01111               286.1 10.9    ?  1088 302.6 -14.0
2023-07-26 03:35:05 #01111               242.3  5.0    ?  1478 302.9 -14.4

2023-07-26 13:33:58 #01111               116.6  5.0    ?  1454  73.0   9.7
2023-07-26 13:36:05 #01111                73.5 10.5    ?  1089  73.3  10.1
2023-07-26 13:38:11 #01111                31.0  5.1    ?  1455  73.5  10.6

2023-07-26 15:03:35 #01111               226.9  5.0    ?  1455  82.8  28.6
2023-07-26 15:05:30 #01111               265.1  9.0    ?  1172  83.0  29.0
2023-07-26 15:07:24 #01111               302.8  5.0    ?  1457  83.2  29.4

2023-07-27 02:06:10 #01111                49.5  5.0    ?  1481 290.7   3.0
2023-07-27 02:08:27 #01111                95.7 11.5    ?  1059 291.0   2.5
2023-07-27 02:10:44 #01111               141.9  5.0    ?  1479 291.3   2.1

2023-07-27 03:35:55 #01111               323.7  5.0    ?  1482 302.9 -14.7
2023-07-27 03:37:49 #01111               286.8  8.9    ?  1202 303.2 -15.0
2023-07-27 03:39:43 #01111               249.9  5.0    ?  1483 303.5 -15.4

2023-07-27 13:38:39 #01111               123.6  5.0    ?  1450  73.8  10.6
2023-07-27 13:41:00 #01111                74.3 12.8    ?   975  74.0  11.0
2023-07-27 13:43:21 #01111                25.1  5.1    ?  1454  74.3  11.5

2023-07-27 15:08:59 #01111               236.9  5.0    ?  1452  83.7  29.7
2023-07-27 15:10:28 #01111               265.6  7.2    ?  1290  83.8  30.0
2023-07-27 15:11:57 #01111               294.2  5.0    ?  1456  84.0  30.3

2023-07-28 02:10:54 #01111                43.6  5.0    ?  1481 291.1   1.9
2023-07-28 02:13:25 #01111                96.2 14.1    ?   943 291.4   1.5
2023-07-28 02:15:57 #01111               149.1  5.0    ?  1484 291.7   1.0

2023-07-28 03:41:14 #01111               315.8  5.0    ?  1483 303.5 -15.8
2023-07-28 03:42:44 #01111               287.5  7.2    ?  1316 303.8 -16.1
2023-07-28 03:44:14 #01111               259.2  5.0    ?  1483 304.0 -16.4

2023-07-28 13:43:22 #01111               130.3  5.0    ?  1452  74.5  11.4
2023-07-28 13:45:55 #01111                75.1 15.6    ?   863  74.8  12.0
2023-07-28 13:48:29 #01111                19.7  5.0    ?  1458  75.1  12.5

2023-07-28 15:14:39 #01111               251.4  5.0    ?  1453  84.5  30.8
2023-07-28 15:15:26 #01111               266.0  5.6    ?  1409  84.6  31.0
2023-07-28 15:16:14 #01111               281.0  5.0    ?  1455  84.7  31.2

2023-07-29 02:15:40 #01111                38.2  5.0    ?  1485 291.5   1.0
2023-07-29 02:18:23 #01111                96.9 17.3    ?   828 291.8   0.5
2023-07-29 02:21:06 #01111               155.6  5.0    ?  1485 292.2   0.0

2023-07-29 03:46:45 #01111               304.6  5.0    ?  1487 304.2 -17.0
2023-07-29 03:47:39 #01111               288.1  5.7    ?  1430 304.4 -17.1
2023-07-29 03:48:32 #01111               271.9  5.0    ?  1486 304.5 -17.3

2023-07-29 13:48:08 #01111               136.5  5.0    ?  1450  75.2  12.3
2023-07-29 13:50:51 #01111                75.4 19.0    ?   751  75.5  12.9
2023-07-29 13:53:34 #01111                14.8  5.0    ?  1458  75.9  13.5

2023-07-30 02:20:29 #01111                33.4  5.1    ?  1483 291.9   0.0
2023-07-30 02:23:21 #01111                97.8 21.3    ?   716 292.3  -1.1
2023-07-30 02:26:12 #01111               161.6  5.1    ?  1483 292.6  -1.7

2023-07-30 13:52:56 #01111               142.4  5.0    ?  1448  76.0  13.2
2023-07-30 13:55:46 #01111                76.3 23.5    ?   643  76.3  13.8
2023-07-30 13:58:37 #01111                10.2  5.0    ?  1457  76.6  14.4

2023-07-31 02:25:19 #01111                28.8  5.1    ?  1486 292.3  -1.7
2023-07-31 02:28:18 #01111                98.2 26.5    ?   607 292.7  -2.3
2023-07-31 02:31:17 #01111               167.4  5.0    ?  1488 293.1  -2.9

2023-07-31 13:57:46 #01111               148.0  5.1    ?  1444  76.8  14.1
2023-07-31 14:00:42 #01111                76.4 29.6    ?   538  77.1  14.7
2023-07-31 14:03:38 #01111                 5.8  5.1    ?  1453  77.4  15.4

2023-08-01 02:30:10 #01111                24.3  5.0    ?  1491 292.7  -2.8
2023-08-01 02:33:15 #01111                98.9 33.8    ?   505 293.1  -3.4
2023-08-01 02:36:19 #01111               173.0  5.1    ?  1486 293.5  -4.0

2023-08-01 14:02:37 #01111               153.6  5.0    ?  1444  77.5  15.1
2023-08-01 14:05:37 #01111                77.6 38.3    ?   441  77.9  15.7
2023-08-01 14:08:38 #01111                 1.5  5.1    ?  1452  78.2  16.3

2023-08-02 02:35:03 #01111                20.1  5.1    ?  1491 293.2  -3.9
2023-08-02 02:38:12 #01111                99.9 44.2    ?   413 293.6  -4.5
2023-08-02 02:41:20 #01111               178.5  5.0    ?  1490 294.0  -5.2

2023-08-02 14:07:29 #01111               159.1  5.0    ?  1447  78.3  16.0
2023-08-02 14:10:33 #01111                77.4 51.2    ?   357  78.7  16.6
2023-08-02 14:13:37 #01111               357.3  5.1    ?  1453  79.0  17.3

2023-08-03 02:39:57 #01111                16.0  5.1    ?  1491 293.6  -5.0
2023-08-03 02:43:08 #01111                99.8 59.6    ?   340 294.0  -5.7
2023-08-03 02:46:19 #01111               183.8  5.1    ?  1491 294.4  -6.3

2023-08-03 14:12:23 #01111               164.5  5.0    ?  1446  79.1  16.9
2023-08-03 14:15:28 #01111                80.0 70.2    ?   298  79.5  17.6
2023-08-03 14:18:35 #01111               353.1  5.0    ?  1457  79.8  18.2

2023-08-04 02:44:52 #01111                11.9  5.1    ?  1492 294.0  -6.2
2023-08-04 02:48:04 #01111                98.4 80.7    ?   299 294.5  -6.8
2023-08-04 02:51:17 #01111               189.1  5.0    ?  1496 294.9  -7.4

2023-08-04 14:17:19 #01111               169.9  5.1    ?  1439  79.9  17.9
2023-08-04 14:20:24 #01111               259.9 85.6    ?   282  80.3  18.5
2023-08-04 14:23:31 #01111               349.0  5.1    ?  1455  80.6  19.2

2023-08-05 02:49:48 #01111                 7.9  5.1    ?  1493 294.5  -7.3
2023-08-05 02:53:00 #01111               282.0 75.8    ?   305 294.9  -8.0
2023-08-05 02:56:12 #01111               194.3  5.1    ?  1491 295.4  -8.6

2023-08-05 14:22:15 #01111               175.3  5.0    ?  1443  80.8  18.8
2023-08-05 14:25:20 #01111               260.8 62.7    ?   315  81.1  19.5
2023-08-05 14:28:26 #01111               344.8  5.1    ?  1455  81.5  20.1

2023-08-06 02:54:44 #01111                 3.9  5.0    ?  1502 294.9  -8.5
2023-08-06 02:57:56 #01111               281.2 56.1    ?   354 295.4  -9.1
2023-08-06 03:01:07 #01111               199.5  5.0    ?  1498 295.8  -9.7

2023-08-06 14:27:13 #01111               180.7  5.0    ?  1443  81.6  19.8
2023-08-06 14:30:16 #01111               261.4 45.9    ?   385  81.9  20.4
2023-08-06 14:33:20 #01111               340.6  5.0    ?  1457  82.3  21.1

2023-08-07 02:59:42 #01111               359.9  5.0    ?  1503 295.4  -9.6
2023-08-07 03:02:51 #01111               282.5 42.1    ?   432 295.9 -10.2
2023-08-07 03:06:00 #01111               204.7  5.0    ?  1501 296.3 -10.9

2023-08-07 14:32:13 #01111               186.3  5.1    ?  1439  82.4  20.8
2023-08-07 14:35:11 #01111               260.8 34.7    ?   475  82.8  21.4
2023-08-07 14:38:12 #01111               336.3  5.1    ?  1455  83.1  22.0

2023-08-08 03:04:41 #01111               355.8  5.0    ?  1505 295.9 -10.8
2023-08-08 03:07:46 #01111               283.2 32.6    ?   525 296.3 -11.4
2023-08-08 03:10:51 #01111               210.1  5.0    ?  1501 296.8 -12.0

2023-08-08 14:37:13 #01111               191.9  5.0    ?  1445  83.3  21.7
2023-08-08 14:40:07 #01111               261.6 27.0    ?   577  83.6  22.4
2023-08-08 14:43:03 #01111               331.8  5.1    ?  1456  84.0  23.0

2023-08-09 03:09:41 #01111               351.6  5.0    ?  1507 296.4 -12.0
2023-08-09 03:12:41 #01111               283.6 25.9    ?   627 296.8 -12.5
2023-08-09 03:15:40 #01111               215.6  5.0    ?  1499 297.3 -13.1

2023-08-09 14:42:16 #01111               197.8  5.0    ?  1443  84.2  22.7
2023-08-09 14:45:03 #01111               262.2 21.6    ?   685  84.5  23.3
2023-08-09 14:47:53 #01111               327.3  5.0    ?  1461  84.8  23.9

2023-08-10 03:14:43 #01111               347.2  5.1    ?  1505 296.9 -13.1
2023-08-10 03:17:35 #01111               284.6 21.0    ?   734 297.3 -13.7
2023-08-10 03:20:28 #01111               221.1  5.0    ?  1503 297.8 -14.2

2023-08-10 14:47:20 #01111               203.9  5.0    ?  1446  85.0  23.7
2023-08-10 14:50:00 #01111               263.5 17.5    ?   797  85.4  24.3
2023-08-10 14:52:40 #01111               322.3  5.1    ?  1458  85.7  24.9

2023-08-11 01:51:59 #01111                75.9  5.0    ?  1509 285.8   3.6
2023-08-11 01:52:58 #01111                93.7  5.8    ?  1442 285.9   3.4
2023-08-11 01:53:57 #01111               111.5  5.0    ?  1506 286.0   3.2

2023-08-11 03:19:46 #01111               342.6  5.1    ?  1505 297.4 -14.3
2023-08-11 03:22:30 #01111               284.7 17.3    ?   844 297.9 -14.8
2023-08-11 03:25:13 #01111               227.1  5.1    ?  1501 298.3 -15.4

2023-08-11 13:24:23 #01111                95.8  5.0    ?  1455  75.8   6.0
2023-08-11 13:25:38 #01111                72.0  6.5    ?  1341  75.9   6.3
2023-08-11 13:26:53 #01111                48.3  5.0    ?  1461  76.0   6.5

2023-08-11 14:52:27 #01111               210.4  5.0    ?  1445  85.9  24.7
2023-08-11 14:54:56 #01111               264.0 14.3    ?   912  86.2  25.3
2023-08-11 14:57:26 #01111               317.1  5.0    ?  1462  86.5  25.8

2023-08-12 01:56:19 #01111                64.5  5.0    ?  1508 286.1   2.6
2023-08-12 01:57:55 #01111                94.2  7.4    ?  1323 286.3   2.3
2023-08-12 01:59:31 #01111               124.1  5.0    ?  1504 286.5   2.0

2023-08-12 03:24:50 #01111               337.8  5.0    ?  1510 298.0 -15.5
2023-08-12 03:27:24 #01111               285.3 14.3    ?   955 298.4 -16.0
2023-08-12 03:29:57 #01111               233.1  5.0    ?  1506 298.8 -16.5

2023-08-12 13:28:48 #01111               106.3  5.0    ?  1454  76.6   6.8
2023-08-12 13:30:31 #01111                72.7  8.2    ?  1228  76.8   7.2
2023-08-12 13:32:15 #01111                39.0  5.0    ?  1466  77.0   7.5

2023-08-12 14:57:36 #01111               217.3  5.0    ?  1449  86.9  25.8
2023-08-12 14:59:52 #01111               264.5 11.7    ?  1028  87.1  26.2
2023-08-12 15:02:09 #01111               311.4  5.0    ?  1463  87.4  26.7

2023-08-13 02:00:51 #01111                56.3  5.0    ?  1511 286.4   1.5
2023-08-13 02:02:52 #01111                94.9  9.3    ?  1205 286.6   1.2
2023-08-13 02:04:52 #01111               133.4  5.0    ?  1504 286.9   0.8

2023-08-13 03:29:57 #01111               332.5  5.0    ?  1510 298.5 -16.7
2023-08-13 03:32:17 #01111               286.3 11.8    ?  1067 298.9 -17.1
2023-08-13 03:34:37 #01111               239.8  5.0    ?  1504 299.3 -17.6

2023-08-13 13:33:21 #01111               114.7  5.0    ?  1453  77.4   7.6
2023-08-13 13:35:24 #01111                73.3 10.1    ?  1115  77.6   8.1
2023-08-13 13:37:28 #01111                32.0  5.0    ?  1466  77.9   8.5

2023-08-13 15:02:49 #01111               225.1  5.0    ?  1451  87.8  26.8
2023-08-13 15:04:48 #01111               265.0  9.5    ?  1145  88.1  27.2
2023-08-13 15:06:48 #01111               304.8  5.0    ?  1463  88.3  27.7

2023-08-14 02:05:29 #01111                49.7  5.0    ?  1513 286.7   0.5
2023-08-14 02:07:48 #01111                95.3 11.4    ?  1088 287.0   0.1
2023-08-14 02:10:07 #01111               141.3  5.0    ?  1506 287.3  -0.9

2023-08-14 03:35:06 #01111               326.7  5.0    ?  1514 299.1 -17.9
2023-08-14 03:37:10 #01111               287.0  9.7    ?  1180 299.5 -18.3
2023-08-14 03:39:14 #01111               247.1  5.0    ?  1505 299.8 -18.7

2023-08-14 13:37:59 #01111               122.0  5.0    ?  1450  78.2   8.5
2023-08-14 13:40:17 #01111                74.0 12.3    ?  1003  78.5   9.0
2023-08-14 13:42:37 #01111                26.0  5.0    ?  1469  78.8   9.5

2023-08-14 15:08:08 #01111               234.3  5.0    ?  1452  88.8  27.8
2023-08-14 15:09:45 #01111               265.8  7.6    ?  1262  89.0  28.2
2023-08-14 15:11:22 #01111               297.0  5.0    ?  1465  89.2  28.5

2023-08-15 02:10:11 #01111                43.9  5.0    ?  1513 287.1  -1.1
2023-08-15 02:12:45 #01111                96.3 13.9    ?   972 287.4  -1.7
2023-08-15 02:15:17 #01111               148.2  5.0    ?  1504 287.7  -2.2

2023-08-15 03:40:20 #01111               319.7  5.0    ?  1514 299.7 -19.1
2023-08-15 03:42:03 #01111               287.7  7.9    ?  1293 300.0 -19.4
2023-08-15 03:43:46 #01111               255.5  5.0    ?  1507 300.3 -19.8

2023-08-15 13:42:39 #01111               128.8  5.0    ?  1454  79.1   9.4
2023-08-15 13:45:10 #01111                74.7 15.0    ?   891  79.4   9.9
2023-08-15 13:47:43 #01111                20.6  5.0    ?  1471  79.7  10.5

2023-08-15 15:13:38 #01111               246.5  5.0    ?  1456  89.8  28.9
2023-08-15 15:14:41 #01111               266.3  6.0    ?  1381  89.9  29.2
2023-08-15 15:15:44 #01111               286.0  5.0    ?  1463  90.1  29.4

2023-08-16 02:14:56 #01111                38.9  5.1    ?  1510 287.4  -2.3
2023-08-16 02:17:40 #01111                96.4 16.9    ?   858 287.8  -2.9
2023-08-16 02:20:24 #01111               154.5  5.0    ?  1502 288.1  -3.5

2023-08-16 03:45:43 #01111               310.4  5.0    ?  1513 300.4 -20.4
2023-08-16 03:46:56 #01111               288.2  6.4    ?  1406 300.6 -20.6
2023-08-16 03:48:09 #01111               266.0  5.0    ?  1509 300.8 -20.8

2023-08-16 13:47:23 #01111               134.9  5.1    ?  1449  79.9  10.3
2023-08-16 13:50:04 #01111                74.9 18.3    ?   781  80.2  10.8
2023-08-16 13:52:46 #01111                15.7  5.1    ?  1469  80.6  11.4

2023-08-17 02:19:42 #01111                34.0  5.0    ?  1513 287.8  -3.5
2023-08-17 02:22:36 #01111                97.2 20.7    ?   746 288.2  -4.1
2023-08-17 02:25:29 #01111               160.6  5.0    ?  1504 288.5  -4.7

2023-08-17 13:52:08 #01111               140.9  5.1    ?  1450  80.8  11.2
2023-08-17 13:54:57 #01111                75.7 22.5    ?   672  81.1  11.8
2023-08-17 13:57:48 #01111                11.1  5.0    ?  1473  81.5  12.4

2023-08-18 02:24:30 #01111                29.5  5.0    ?  1514 288.2  -4.7
2023-08-18 02:27:31 #01111                97.6 25.6    ?   637 288.6  -5.3
2023-08-18 02:30:31 #01111               166.2  5.1    ?  1500 288.9  -6.0

2023-08-18 13:56:54 #01111               146.7  5.0    ?  1456  81.7  12.1
2023-08-18 13:59:50 #01111                76.6 28.1    ?   568  82.0  12.7
2023-08-18 14:02:48 #01111                 6.7  5.1    ?  1474  82.4  13.4

2023-08-19 02:29:20 #01111                25.2  5.1    ?  1511 288.5  -5.9
2023-08-19 02:32:26 #01111                98.0 32.2    ?   534 289.0  -6.6
2023-08-19 02:35:32 #01111               171.8  5.0    ?  1503 289.4  -7.2

2023-08-19 14:01:43 #01111               152.2  5.1    ?  1453  82.5  13.0
2023-08-19 14:04:43 #01111                77.7 36.0    ?   469  82.9  13.7
2023-08-19 14:07:47 #01111                 2.4  5.0    ?  1479  83.3  14.3

2023-08-20 02:34:10 #01111                21.0  5.0    ?  1516 288.9  -7.2
2023-08-20 02:37:21 #01111                98.7 41.6    ?   439 289.4  -7.8
2023-08-20 02:40:30 #01111               177.1  5.1    ?  1497 289.8  -8.5

2023-08-20 14:06:33 #01111               157.6  5.1    ?  1453  83.4  14.0
2023-08-20 14:09:37 #01111                77.7 47.5    ?   383  83.8  14.6
2023-08-20 14:12:44 #01111               358.3  5.1    ?  1479  84.2  15.3

2023-08-21 02:39:02 #01111                16.9  5.0    ?  1515 289.3  -8.4
2023-08-21 02:42:16 #01111               100.2 55.3    ?   361 289.8  -9.0
2023-08-21 02:45:27 #01111               182.4  5.1    ?  1496 290.2  -9.7

2023-08-21 14:11:24 #01111               163.0  5.0    ?  1456  84.3  14.9
2023-08-21 14:14:30 #01111                80.0 64.5    ?   317  84.7  15.6
2023-08-21 14:17:40 #01111               354.2  5.1    ?  1480  85.1  16.2

2023-08-22 02:43:55 #01111                13.0  5.1    ?  1513 289.8  -9.6
2023-08-22 02:47:10 #01111               100.5 74.5    ?   310 290.2 -10.3
2023-08-22 02:50:23 #01111               187.6  5.0    ?  1499 290.6 -10.9

2023-08-22 14:16:17 #01111               168.3  5.1    ?  1454  85.3  15.8
2023-08-22 14:19:24 #01111                81.8 87.1    ?   289  85.6  16.5
2023-08-22 14:22:35 #01111               350.2  5.0    ?  1483  86.0  17.2

2023-08-23 02:48:49 #01111                 9.0  5.1    ?  1512 290.2 -10.9
2023-08-23 02:52:04 #01111               279.5 82.4    ?   302 290.6 -11.5
2023-08-23 02:55:17 #01111               192.8  5.0    ?  1499 291.1 -12.2

2023-08-23 14:21:10 #01111               173.6  5.0    ?  1462  86.2  16.8
2023-08-23 14:24:18 #01111               260.7 69.5    ?   307  86.6  17.5
2023-08-23 14:27:29 #01111               346.1  5.0    ?  1488  86.9  18.2

2023-08-24 02:53:43 #01111                 5.1  5.0    ?  1518 290.6 -12.1
2023-08-24 02:56:57 #01111               282.9 61.4    ?   338 291.1 -12.8
2023-08-24 03:00:09 #01111               198.0  5.1    ?  1495 291.5 -13.4

2023-08-24 14:26:06 #01111               178.9  5.1    ?  1458  87.1  17.8
2023-08-24 14:29:12 #01111               261.3 51.1    ?   367  87.5  18.4
2023-08-24 14:32:21 #01111               342.1  5.0    ?  1487  87.9  19.1

2023-08-25 02:58:39 #01111                 1.1  5.0    ?  1516 291.0 -13.3
2023-08-25 03:01:51 #01111               281.9 45.9    ?   408 291.5 -14.0
2023-08-25 03:05:00 #01111               203.2  5.0    ?  1496 292.0 -14.6

2023-08-25 14:31:02 #01111               184.3  5.0    ?  1464  88.1  18.7
2023-08-25 14:34:05 #01111               260.5 38.5    ?   451  88.5  19.4
2023-08-25 14:37:12 #01111               337.9  5.1    ?  1489  88.8  20.1

2023-08-26 03:03:36 #01111               357.1  5.0    ?  1514 291.5 -14.6
2023-08-26 03:06:44 #01111               282.6 35.3    ?   496 292.0 -15.2
2023-08-26 03:09:49 #01111               208.5  5.1    ?  1493 292.4 -15.9

2023-08-26 14:36:00 #01111               189.8  5.0    ?  1467  89.0  19.7
2023-08-26 14:38:59 #01111               261.4 30.0    ?   548  89.4  20.3
2023-08-26 14:42:02 #01111               333.7  5.0    ?  1492  89.8  21.0

2023-08-27 03:08:34 #01111               353.0  5.0    ?  1513 292.0 -15.9
2023-08-27 03:11:36 #01111               283.9 27.8    ?   595 292.4 -16.5
2023-08-27 03:14:37 #01111               213.9  5.0    ?  1495 292.9 -17.1

2023-08-27 14:41:00 #01111               195.4  5.1    ?  1466  90.0  20.7
2023-08-27 14:43:53 #01111               262.1 23.9    ?   654  90.4  21.3
2023-08-27 14:46:50 #01111               329.3  5.0    ?  1492  90.8  21.9

2023-08-28 03:13:33 #01111               348.7  5.0    ?  1513 292.5 -17.1
2023-08-28 03:16:29 #01111               284.1 22.5    ?   699 292.9 -17.7
2023-08-28 03:19:23 #01111               219.4  5.0    ?  1496 293.3 -18.3

2023-08-28 14:46:01 #01111               201.2  5.0    ?  1471  91.0  21.7
2023-08-28 14:48:48 #01111               263.3 19.4    ?   763  91.4  22.3
2023-08-28 14:51:37 #01111               324.8  5.0    ?  1496  91.7  22.9

2023-08-29 01:51:13 #01111                82.8  5.0    ?  1505 281.1   0.3
2023-08-29 01:51:48 #01111                93.3  5.3    ?  1480 281.2   0.2
2023-08-29 01:52:23 #01111               103.8  5.0    ?  1501 281.3   0.1

2023-08-29 03:18:34 #01111               344.2  5.1    ?  1508 293.0 -18.4
2023-08-29 03:21:21 #01111               284.8 18.4    ?   807 293.4 -18.9
2023-08-29 03:24:06 #01111               225.4  5.1    ?  1490 293.8 -19.5

2023-08-29 13:23:13 #01111                94.2  5.0    ?  1485  81.3   3.8
2023-08-29 13:24:26 #01111                71.6  6.4    ?  1383  81.4   4.1
2023-08-29 13:25:39 #01111                49.1  5.0    ?  1495  81.6   4.3

2023-08-29 14:51:04 #01111               207.3  5.0    ?  1475  92.0  22.7
2023-08-29 14:53:42 #01111               263.8 15.9    ?   876  92.4  23.2
2023-08-29 14:56:21 #01111               319.8  5.1    ?  1493  92.7  23.8

2023-08-30 01:55:19 #01111                68.0  5.0    ?  1504 281.4  -1.4
2023-08-30 01:56:43 #01111                93.9  6.8    ?  1362 281.5  -1.7
2023-08-30 01:58:07 #01111               119.9  5.0    ?  1496 281.7  -2.0

2023-08-30 03:23:36 #01111               339.4  5.1    ?  1508 293.5 -19.7
2023-08-30 03:26:13 #01111               285.3 15.1    ?   917 293.9 -20.2
2023-08-30 03:28:48 #01111               231.4  5.0    ?  1492 294.3 -20.7

2023-08-30 13:27:34 #01111               105.0  5.0    ?  1486  82.2   4.6
2023-08-30 13:29:17 #01111                72.2  8.0    ?  1271  82.4   5.0
2023-08-30 13:31:00 #01111                39.8  5.0    ?  1499  82.6   5.3

2023-08-30 14:56:10 #01111               213.9  5.0    ?  1476  93.1  23.7
2023-08-30 14:58:36 #01111               264.3 13.1    ?   990  93.4  24.2
2023-08-30 15:01:04 #01111               314.6  5.0    ?  1498  93.7  24.7

2023-08-31 01:59:46 #01111                59.1  5.0    ?  1505 281.7  -2.6
2023-08-31 02:01:38 #01111                94.6  8.5    ?  1245 281.9  -3.0
2023-08-31 02:03:28 #01111               129.8  5.0    ?  1490 282.1  -3.4

2023-08-31 03:28:40 #01111               334.3  5.0    ?  1507 294.0 -20.9
2023-08-31 03:31:04 #01111               286.2 12.5    ?  1028 294.4 -21.4
2023-08-31 03:33:27 #01111               237.9  5.0    ?  1491 294.8 -21.9

2023-08-31 13:32:04 #01111               113.4  5.0    ?  1487  83.1   5.4
2023-08-31 13:34:08 #01111                72.8  9.8    ?  1159  83.3   5.9
2023-08-31 13:36:12 #01111                32.7  5.0    ?  1502  83.6   6.3

2023-08-31 15:01:19 #01111               221.1  5.1    ?  1478  94.1  24.7
2023-08-31 15:03:30 #01111               264.8 10.7    ?  1106  94.4  25.1
2023-08-31 15:05:43 #01111               308.7  5.0    ?  1497  94.7  25.6

2023-09-01 02:04:21 #01111                52.2  5.0    ?  1503 282.0  -3.8
2023-09-01 02:06:32 #01111                95.0 10.4    ?  1128 282.2  -4.3
2023-09-01 02:08:42 #01111               138.0  5.0    ?  1488 282.5  -4.7

2023-09-01 03:33:47 #01111               328.5  5.1    ?  1504 294.6 -22.2
2023-09-01 03:35:55 #01111               286.9 10.3    ?  1139 294.9 -22.7
2023-09-01 03:38:03 #01111               245.0  5.0    ?  1492 295.2 -23.1

2023-09-01 13:36:39 #01111               120.7  5.0    ?  1486  84.0   6.3
2023-09-01 13:38:59 #01111                73.5 12.0    ?  1047  84.3   6.8
2023-09-01 13:41:19 #01111                26.9  5.1    ?  1501  84.5   7.3

2023-09-01 15:06:31 #01111               228.9  5.0    ?  1485  95.2  25.7
2023-09-01 15:08:25 #01111               265.7  8.7    ?  1223  95.5  26.1
2023-09-01 15:10:19 #01111               302.0  5.0    ?  1501  95.7  26.5

2023-09-02 02:09:00 #01111                46.3  5.1    ?  1501 282.3  -5.0
2023-09-02 02:11:26 #01111                95.6 12.7    ?  1012 282.6  -5.5
2023-09-02 02:13:51 #01111               145.1  5.0    ?  1484 282.9  -6.1

2023-09-02 03:38:57 #01111               321.9  5.0    ?  1506 295.1 -23.5
2023-09-02 03:40:46 #01111               287.5  8.4    ?  1251 295.4 -23.9
2023-09-02 03:42:34 #01111               253.1  5.0    ?  1491 295.7 -24.2

2023-09-02 13:41:17 #01111               127.4  5.0    ?  1488  84.9   7.2
2023-09-02 13:43:50 #01111                74.2 14.5    ?   936  85.2   7.7
2023-09-02 13:46:24 #01111                21.5  5.0    ?  1507  85.5   8.3

2023-09-02 15:11:51 #01111               238.6  5.0    ?  1488  96.3  26.7
2023-09-02 15:13:19 #01111               266.1  7.0    ?  1340  96.5  27.0
2023-09-02 15:14:47 #01111               293.4  5.0    ?  1499  96.7  27.4

2023-09-03 02:13:41 #01111                40.9  5.0    ?  1503 282.6  -6.3
2023-09-03 02:16:20 #01111                96.2 15.4    ?   898 283.0  -6.8
2023-09-03 02:18:57 #01111               151.7  5.0    ?  1483 283.3  -7.4

2023-09-03 03:44:15 #01111               313.3  5.0    ?  1501 295.7 -24.9
2023-09-03 03:45:36 #01111               288.4  6.7    ?  1363 296.0 -25.1
2023-09-03 03:46:58 #01111               262.9  5.0    ?  1493 296.2 -25.4

2023-09-03 13:45:58 #01111               133.5  5.0    ?  1486  85.8   8.1
2023-09-03 13:48:41 #01111                74.9 17.6    ?   826  86.2   8.7
2023-09-03 13:51:26 #01111                16.6  5.0    ?  1509  86.5   9.3

2023-09-03 15:17:28 #01111               253.0  5.0    ?  1494  97.5  27.8
2023-09-03 15:18:13 #01111               266.6  5.5    ?  1458  97.6  28.0
2023-09-03 15:18:59 #01111               280.5  5.0    ?  1500  97.7  28.1

