ADCS_n_Propulsion/Orbital pass data/90d_lat0.txt

Satellite passes / Orbitron 3.71 / www.stoff.pl

Location      : Picked Site (74.6342° W, 0.2431° S)
Time zone     : UTC +2:00
Search period : 2023-06-05 15:43:37 - 90 days
                2023-09-03 15:43:37
Conditions    : Maximum sun elevation = None
                Minimum sat elevation = 5 deg
                Illumination NOT required

Time                Satellite              Azm  Elv  Mag Range S.Azm S.Elv
--------------------------------------------------------------------------
2023-06-06 02:26:11 #01111               342.4  5.1    ?  1474 294.1 -20.6
2023-06-06 02:28:58 #01111               280.5 20.0    ?   741 294.2 -21.2
2023-06-06 02:31:46 #01111               218.0  5.0  ecl  1473 294.4 -21.8

2023-06-06 13:43:44 #01111               149.1  5.1    ?  1480  66.9  10.7
2023-06-06 13:46:42 #01111                79.9 27.0    ?   597  66.8  11.4
2023-06-06 13:49:41 #01111                10.4  5.0    ?  1485  66.8  12.1

2023-06-07 02:31:25 #01111               335.9  5.1    ?  1472 294.4 -21.7
2023-06-07 02:34:01 #01111               280.2 15.7    ?   873 294.6 -22.3
2023-06-07 02:36:37 #01111               224.6  5.0  ecl  1472 294.7 -22.9

2023-06-07 13:48:40 #01111               155.0  5.0    ?  1483  66.7  11.8
2023-06-07 13:51:45 #01111                79.3 36.0    ?   478  66.6  12.5
2023-06-07 13:54:49 #01111                 4.7  5.1    ?  1483  66.5  13.2

2023-06-08 02:36:42 #01111               328.7  5.0    ?  1471 294.8 -22.9
2023-06-08 02:39:03 #01111               280.3 12.4    ?  1008 294.9 -23.4
2023-06-08 02:41:24 #01111               231.9  5.0  ecl  1469 295.0 -23.9

2023-06-08 13:53:38 #01111               160.7  5.0    ?  1486  66.5  12.9
2023-06-08 13:56:47 #01111                79.6 50.0    ?   377  66.4  13.6
2023-06-08 13:59:56 #01111               359.0  5.0    ?  1488  66.3  14.3

2023-06-09 01:14:11 #01111                89.6  5.0    ?  1470 292.9  -3.9
2023-06-09 01:14:47 #01111               100.6  5.3    ?  1446 292.9  -4.0
2023-06-09 01:15:22 #01111               111.4  5.0    ?  1470 292.9  -4.2

2023-06-09 02:42:04 #01111               320.5  5.0    ?  1467 295.1 -24.0
2023-06-09 02:44:05 #01111               280.4  9.7    ?  1144 295.2 -24.5
2023-06-09 02:46:07 #01111               240.0  5.0  ecl  1469 295.3 -24.9

2023-06-09 13:58:38 #01111               166.2  5.0    ?  1487  66.3  14.0
2023-06-09 14:01:49 #01111                80.4 71.7    ?   308  66.2  14.7
2023-06-09 14:05:00 #01111               353.5  5.1    ?  1485  66.1  15.4

2023-06-10 01:18:20 #01111                72.3  5.0    ?  1469 293.0  -4.8
2023-06-10 01:19:48 #01111               100.3  7.1    ?  1308 293.0  -5.1
2023-06-10 01:21:16 #01111               128.3  5.0  ecl  1466 293.1  -5.5

2023-06-10 02:47:33 #01111               310.5  5.0    ?  1466 295.4 -25.2
2023-06-10 02:49:07 #01111               280.4  7.5    ?  1281 295.5 -25.5
2023-06-10 02:50:42 #01111               250.0  5.0    ?  1468 295.6 -25.9

2023-06-10 14:03:40 #01111               171.7  5.1    ?  1486  66.1  15.0
2023-06-10 14:06:51 #01111               257.5 80.7    ?   298  66.0  15.8
2023-06-10 14:10:03 #01111               348.0  5.1    ?  1489  65.9  16.5

2023-06-11 01:22:54 #01111                62.1  5.0    ?  1465 293.1  -5.8
2023-06-11 01:24:50 #01111               100.3  9.2    ?  1170 293.2  -6.3
2023-06-11 01:26:46 #01111               138.6  5.1  ecl  1462 293.2  -6.7

2023-06-11 02:53:20 #01111               295.6  5.0    ?  1466 295.8 -26.4
2023-06-11 02:54:09 #01111               280.4  5.6    ?  1418 295.8 -26.6
2023-06-11 02:54:58 #01111               265.2  5.0    ?  1466 295.9 -26.8

2023-06-11 14:08:43 #01111               177.1  5.1    ?  1489  65.8  16.1
2023-06-11 14:11:53 #01111               259.2 56.5    ?   350  65.7  16.9
2023-06-11 14:15:04 #01111               342.5  5.0    ?  1493  65.6  17.6

2023-06-12 01:27:36 #01111                53.8  5.1    ?  1461 293.3  -6.8
2023-06-12 01:29:52 #01111               100.4 11.7    ?  1034 293.3  -7.4
2023-06-12 01:32:08 #01111               147.0  5.0  ecl  1461 293.3  -7.9

2023-06-12 14:13:48 #01111               182.7  5.1    ?  1491  65.6  17.2
2023-06-12 14:16:55 #01111               259.6 40.3    ?   443  65.5  17.9
2023-06-12 14:20:03 #01111               337.0  5.0    ?  1495  65.4  18.7

2023-06-13 01:32:22 #01111                46.3  5.0    ?  1461 293.4  -7.9
2023-06-13 01:34:54 #01111               100.5 14.8    ?   899 293.4  -8.5
2023-06-13 01:37:25 #01111               154.3  5.0  ecl  1460 293.4  -9.0

2023-06-13 14:18:54 #01111               188.2  5.0    ?  1498  65.4  18.3
2023-06-13 14:21:57 #01111               259.8 30.0    ?   557  65.3  19.0
2023-06-13 14:24:59 #01111               331.2  5.1    ?  1492  65.2  19.7

2023-06-14 01:37:12 #01111                39.6  5.0    ?  1458 293.5  -8.9
2023-06-14 01:39:55 #01111               100.2 18.7    ?   766 293.5  -9.6
2023-06-14 01:42:38 #01111               160.9  5.1  ecl  1457 293.6 -10.2

2023-06-14 14:24:03 #01111               194.1  5.0    ?  1498  65.1  19.4
2023-06-14 14:26:59 #01111               260.0 23.1    ?   682  65.0  20.1
2023-06-14 14:29:54 #01111               325.4  5.0    ?  1496  64.9  20.8

2023-06-15 01:42:04 #01111                33.3  5.0    ?  1459 293.6 -10.0
2023-06-15 01:44:56 #01111                99.9 24.0    ?   636 293.7 -10.7
2023-06-15 01:47:49 #01111               167.2  5.0  ecl  1460 293.7 -11.3

2023-06-15 14:29:14 #01111               200.2  5.0    ?  1499  64.9  20.6
2023-06-15 14:32:00 #01111               259.6 18.1    ?   812  64.8  21.2
2023-06-15 14:34:46 #01111               319.2  5.0    ?  1497  64.7  21.8

2023-06-16 01:46:59 #01111                27.4  5.0    ?  1456 293.7 -11.1
2023-06-16 01:49:58 #01111               100.5 31.6    ?   514 293.8 -11.8
2023-06-16 01:52:56 #01111               173.0  5.1  ecl  1453 293.9 -12.4

2023-06-16 14:34:28 #01111               206.8  5.1    ?  1499  64.7  21.7
2023-06-16 14:37:01 #01111               259.4 14.4    ?   945  64.5  22.3
2023-06-16 14:39:35 #01111               312.5  5.1    ?  1498  64.4  22.8

2023-06-17 01:51:56 #01111                21.6  5.1    ?  1452 293.9 -12.2
2023-06-17 01:54:59 #01111               100.4 43.4    ?   403 293.9 -12.9
2023-06-17 01:58:02 #01111               178.8  5.1  ecl  1454 294.0 -13.6

2023-06-17 14:39:45 #01111               214.0  5.1    ?  1501  64.4  22.8
2023-06-17 14:42:03 #01111               259.7 11.5    ?  1080  64.3  23.3
2023-06-17 14:44:21 #01111               305.4  5.0    ?  1503  64.2  23.9

2023-06-18 01:56:54 #01111                15.9  5.0    ?  1454 294.0 -13.2
2023-06-18 02:00:00 #01111               100.3 62.1    ?   318 294.1 -13.9
2023-06-18 02:03:06 #01111               184.4  5.0  ecl  1455 294.2 -14.7

2023-06-18 13:16:26 #01111               104.0  5.0    ?  1504  66.5   3.9
2023-06-18 13:17:45 #01111                79.8  6.6    ?  1379  66.5   4.2
2023-06-18 13:19:05 #01111                55.2  5.0    ?  1504  66.5   4.5

2023-06-18 14:45:07 #01111               222.2  5.0    ?  1503  64.1  24.0
2023-06-18 14:47:04 #01111               259.6  9.0    ?  1216  64.0  24.4
2023-06-18 14:49:01 #01111               297.0  5.0    ?  1504  63.9  24.9

2023-06-19 02:01:55 #01111                10.3  5.1    ?  1446 294.1 -14.3
2023-06-19 02:05:01 #01111               109.7 89.1    ?   282 294.2 -15.0
2023-06-19 02:08:08 #01111               190.0  5.0  ecl  1455 294.3 -15.7

2023-06-19 13:20:54 #01111               115.3  5.0    ?  1505  66.5   4.9
2023-06-19 13:22:46 #01111                79.8  8.6    ?  1242  66.5   5.3
2023-06-19 13:24:38 #01111                44.2  5.0    ?  1501  66.4   5.7

2023-06-19 14:50:37 #01111               232.4  5.0    ?  1507  63.8  25.2
2023-06-19 14:52:05 #01111               259.6  7.0    ?  1353  63.8  25.5
2023-06-19 14:53:32 #01111               286.4  5.0    ?  1504  63.7  25.8

2023-06-20 02:06:56 #01111                 4.7  5.0    ?  1451 294.3 -15.4
2023-06-20 02:10:02 #01111               279.3 63.5    ?   313 294.4 -16.1
2023-06-20 02:13:08 #01111               195.6  5.0  ecl  1456 294.5 -16.8

2023-06-20 13:25:32 #01111               124.1  5.0    ?  1507  66.4   5.9
2023-06-20 13:27:47 #01111                79.9 11.0    ?  1106  66.4   6.4
2023-06-20 13:30:02 #01111                35.5  5.0    ?  1503  66.4   6.9

2023-06-20 14:56:35 #01111               250.3  5.0    ?  1509  63.5  26.4
2023-06-20 14:57:05 #01111               259.2  5.2    ?  1491  63.5  26.6
2023-06-20 14:57:36 #01111               268.5  5.0    ?  1508  63.4  26.7

2023-06-21 02:12:00 #01111               359.1  5.0    ?  1447 294.4 -16.5
2023-06-21 02:15:02 #01111               280.9 44.2    ?   396 294.5 -17.2
2023-06-21 02:18:06 #01111               201.2  5.0  ecl  1455 294.6 -17.9

2023-06-21 13:30:16 #01111               131.5  5.0    ?  1507  66.4   6.9
2023-06-21 13:32:48 #01111                79.8 13.9    ?   971  66.3   7.5
2023-06-21 13:35:20 #01111                28.0  5.0    ?  1505  66.3   8.0

2023-06-22 02:17:05 #01111               353.3  5.0    ?  1448 294.6 -17.6
2023-06-22 02:20:03 #01111               280.2 32.1    ?   505 294.7 -18.3
2023-06-22 02:23:02 #01111               206.9  5.0  ecl  1455 294.8 -19.0

2023-06-22 13:35:04 #01111               138.2  5.1    ?  1506  66.3   7.9
2023-06-22 13:37:49 #01111                79.7 17.4    ?   838  66.3   8.6
2023-06-22 13:40:33 #01111                21.5  5.1    ?  1499  66.2   9.2

2023-06-23 02:22:13 #01111               347.2  5.1    ?  1442 294.7 -18.8
2023-06-23 02:25:04 #01111               279.8 24.2    ?   627 294.8 -19.4
2023-06-23 02:27:55 #01111               213.0  5.1  ecl  1450 294.9 -20.0

2023-06-23 13:39:54 #01111               144.5  5.0    ?  1509  66.2   9.0
2023-06-23 13:42:50 #01111                79.5 22.1    ?   708  66.2   9.6
2023-06-23 13:45:44 #01111                15.3  5.1    ?  1501  66.1  10.3

2023-06-24 02:27:22 #01111               341.0  5.0    ?  1445 294.9 -19.9
2023-06-24 02:30:04 #01111               280.1 18.8    ?   755 295.0 -20.5
2023-06-24 02:32:47 #01111               219.2  5.0  ecl  1454 295.1 -21.1

2023-06-24 13:44:47 #01111               150.3  5.1    ?  1508  66.2  10.0
2023-06-24 13:47:50 #01111                80.0 28.6    ?   584  66.1  10.7
2023-06-24 13:50:52 #01111                 9.4  5.1    ?  1499  66.0  11.4

2023-06-25 02:32:34 #01111               334.3  5.0    ?  1445 295.1 -21.0
2023-06-25 02:35:04 #01111               280.2 14.8    ?   887 295.2 -21.6
2023-06-25 02:37:35 #01111               226.0  5.0  ecl  1452 295.3 -22.1

2023-06-25 13:49:42 #01111               156.0  5.1    ?  1508  66.1  11.1
2023-06-25 13:52:51 #01111                79.4 38.1    ?   468  66.0  11.8
2023-06-25 13:55:58 #01111                 3.8  5.1    ?  1498  66.0  12.5

2023-06-26 02:37:50 #01111               326.8  5.1    ?  1442 295.3 -22.2
2023-06-26 02:40:04 #01111               280.3 11.7    ?  1021 295.3 -22.7
2023-06-26 02:42:20 #01111               233.3  5.0    ?  1453 295.4 -23.2

2023-06-26 13:54:38 #01111               161.5  5.0    ?  1513  66.0  12.2
2023-06-26 13:57:51 #01111                79.8 52.8    ?   371  65.9  12.9
2023-06-26 14:01:02 #01111               358.2  5.1    ?  1498  65.9  13.6

2023-06-27 01:15:13 #01111                90.5  5.0    ?  1449 293.4  -3.3
2023-06-27 01:15:46 #01111               100.8  5.3    ?  1429 293.4  -3.4
2023-06-27 01:16:19 #01111               111.0  5.0    ?  1452 293.4  -3.5

2023-06-27 02:43:10 #01111               318.4  5.0    ?  1444 295.4 -23.3
2023-06-27 02:45:04 #01111               280.3  9.2    ?  1157 295.5 -23.7
2023-06-27 02:46:59 #01111               241.9  5.0    ?  1450 295.6 -24.2

2023-06-27 13:59:37 #01111               166.9  5.1    ?  1508  65.9  13.3
2023-06-27 14:02:51 #01111                81.1 75.1    ?   309  65.9  14.0
2023-06-27 14:06:04 #01111               352.8  5.1    ?  1497  65.8  14.7

2023-06-28 01:19:19 #01111                72.7  5.0    ?  1446 293.3  -4.1
2023-06-28 01:20:46 #01111               100.8  7.1    ?  1292 293.4  -4.5
2023-06-28 01:22:13 #01111               128.8  5.0    ?  1455 293.4  -4.8

2023-06-28 02:48:38 #01111               308.0  5.0    ?  1446 295.6 -24.5
2023-06-28 02:50:04 #01111               280.2  7.1    ?  1293 295.7 -24.8
2023-06-28 02:51:30 #01111               252.5  5.0    ?  1449 295.8 -25.2

2023-06-28 14:04:37 #01111               172.2  5.1    ?  1509  65.9  14.4
2023-06-28 14:07:51 #01111               257.4 77.8    ?   306  65.8  15.1
2023-06-28 14:11:05 #01111               347.4  5.0    ?  1503  65.7  15.8

2023-06-29 01:23:50 #01111                62.1  5.0    ?  1446 293.3  -5.1
2023-06-29 01:25:45 #01111               100.6  9.2    ?  1156 293.3  -5.6
2023-06-29 01:27:41 #01111               139.1  5.0  ecl  1456 293.4  -6.0

2023-06-29 02:54:33 #01111               289.8  5.0    ?  1448 295.9 -25.8
2023-06-29 02:55:04 #01111               280.2  5.2    ?  1430 295.9 -25.9
2023-06-29 02:55:35 #01111               270.5  5.0    ?  1450 295.9 -26.0

2023-06-29 14:09:38 #01111               177.6  5.0    ?  1514  65.8  15.5
2023-06-29 14:12:51 #01111               259.1 54.8    ?   362  65.7  16.2
2023-06-29 14:16:03 #01111               342.0  5.0    ?  1501  65.6  16.9

2023-06-30 01:28:29 #01111                53.6  5.0    ?  1447 293.3  -6.2
2023-06-30 01:30:45 #01111               100.8 11.7    ?  1021 293.3  -6.7
2023-06-30 01:33:00 #01111               147.3  5.1  ecl  1453 293.4  -7.2

2023-06-30 14:14:41 #01111               183.0  5.0    ?  1516  65.7  16.6
2023-06-30 14:17:51 #01111               259.5 39.4    ?   457  65.6  17.3
2023-06-30 14:20:59 #01111               336.4  5.1    ?  1498  65.5  18.0

2023-07-01 01:33:14 #01111                46.3  5.1    ?  1442 293.3  -7.2
2023-07-01 01:35:44 #01111               100.6 14.8    ?   887 293.3  -7.8
2023-07-01 01:38:15 #01111               154.7  5.0  ecl  1455 293.4  -8.4

2023-07-01 14:19:47 #01111               188.6  5.1    ?  1509  65.6  17.7
2023-07-01 14:22:51 #01111               259.8 29.5    ?   570  65.5  18.4
2023-07-01 14:25:53 #01111               330.7  5.1    ?  1495  65.4  19.1

2023-07-02 01:38:01 #01111                39.4  5.0    ?  1445 293.3  -8.3
2023-07-02 01:40:43 #01111               100.4 18.8    ?   755 293.3  -8.9
2023-07-02 01:43:26 #01111               161.3  5.1  ecl  1454 293.4  -9.5

2023-07-02 14:24:54 #01111               194.4  5.1    ?  1509  65.5  18.8
2023-07-02 14:27:50 #01111               259.3 22.8    ?   694  65.4  19.5
2023-07-02 14:30:45 #01111               324.8  5.1    ?  1494  65.3  20.1

2023-07-03 01:42:51 #01111                33.1  5.0    ?  1446 293.3  -9.3
2023-07-03 01:45:42 #01111               100.2 24.3    ?   627 293.3 -10.0
2023-07-03 01:48:35 #01111               167.5  5.0  ecl  1460 293.4 -10.7

2023-07-03 14:30:03 #01111               200.4  5.0    ?  1511  65.4  20.0
2023-07-03 14:32:50 #01111               259.7 17.9    ?   823  65.3  20.6
2023-07-03 14:35:35 #01111               318.7  5.0    ?  1497  65.2  21.2

2023-07-04 01:47:44 #01111                27.2  5.0    ?  1443 293.3 -10.4
2023-07-04 01:50:41 #01111               100.0 32.1    ?   506 293.3 -11.1
2023-07-04 01:53:41 #01111               173.4  5.0  ecl  1461 293.4 -11.8

2023-07-04 14:35:15 #01111               207.0  5.0    ?  1510  65.3  21.1
2023-07-04 14:37:49 #01111               259.5 14.2    ?   955  65.2  21.7
2023-07-04 14:40:22 #01111               312.1  5.0    ?  1499  65.1  22.3

2023-07-05 01:52:38 #01111                21.4  5.0    ?  1446 293.3 -11.5
2023-07-05 01:55:40 #01111                99.7 44.1    ?   398 293.3 -12.2
2023-07-05 01:58:45 #01111               179.1  5.0  ecl  1464 293.4 -12.9

2023-07-05 14:40:30 #01111               214.1  5.0    ?  1512  65.2  22.3
2023-07-05 14:42:48 #01111               259.4 11.3    ?  1089  65.1  22.8
2023-07-05 14:45:04 #01111               304.5  5.1    ?  1495  65.0  23.3

2023-07-06 01:57:35 #01111                15.7  5.1    ?  1441 293.3 -12.6
2023-07-06 02:00:39 #01111                99.3 63.1    ?   315 293.3 -13.3
2023-07-06 02:03:46 #01111               184.7  5.1  ecl  1459 293.4 -14.0

2023-07-06 13:17:07 #01111               104.9  5.0    ?  1505  67.3   3.3
2023-07-06 13:18:28 #01111                80.0  6.7    ?  1371  67.3   3.6
2023-07-06 13:19:49 #01111                55.0  5.0    ?  1497  67.2   3.9

2023-07-06 14:45:51 #01111               222.5  5.0    ?  1508  65.0  23.5
2023-07-06 14:47:47 #01111               259.4  8.9    ?  1224  64.9  23.9
2023-07-06 14:49:42 #01111               296.2  5.0    ?  1498  64.9  24.3

2023-07-07 02:02:32 #01111                10.1  5.0    ?  1448 293.3 -13.7
2023-07-07 02:05:38 #01111               332.3 89.8    ?   283 293.3 -14.4
2023-07-07 02:08:46 #01111               190.2  5.1  ecl  1461 293.4 -15.2

2023-07-07 13:21:34 #01111               115.9  5.0    ?  1506  67.3   4.3
2023-07-07 13:23:27 #01111                80.1  8.7    ?  1235  67.3   4.7
2023-07-07 13:25:19 #01111                44.2  5.0    ?  1492  67.3   5.1

2023-07-07 14:51:20 #01111               232.9  5.0    ?  1508  64.9  24.7
2023-07-07 14:52:45 #01111               259.1  6.9    ?  1360  64.8  25.0
2023-07-07 14:54:10 #01111               285.4  5.0    ?  1499  64.7  25.3

2023-07-08 02:07:32 #01111                 4.6  5.0    ?  1445 293.3 -14.8
2023-07-08 02:10:37 #01111               279.8 63.0    ?   317 293.4 -15.6
2023-07-08 02:13:44 #01111               195.7  5.1  ecl  1462 293.4 -16.3

2023-07-08 13:26:11 #01111               124.4  5.0    ?  1506  67.4   5.3
2023-07-08 13:28:26 #01111                80.1 11.0    ?  1100  67.4   5.8
2023-07-08 13:30:40 #01111                35.6  5.0    ?  1491  67.4   6.3

2023-07-09 02:12:33 #01111               358.9  5.0    ?  1448 293.3 -16.0
2023-07-09 02:15:36 #01111               279.4 44.1    ?   400 293.4 -16.7
2023-07-09 02:18:41 #01111               201.2  5.0  ecl  1470 293.5 -17.4

2023-07-09 13:30:54 #01111               131.6  5.1    ?  1501  67.5   6.3
2023-07-09 13:33:25 #01111                80.0 13.8    ?   965  67.5   6.9
2023-07-09 13:35:55 #01111                28.3  5.0    ?  1488  67.4   7.5

2023-07-10 02:17:36 #01111               353.2  5.0    ?  1448 293.3 -17.1
2023-07-10 02:20:34 #01111               280.2 32.2    ?   508 293.4 -17.8
2023-07-10 02:23:35 #01111               206.9  5.0  ecl  1470 293.5 -18.5

2023-07-10 13:35:39 #01111               138.4  5.0    ?  1505  67.5   7.4
2023-07-10 13:38:24 #01111                79.9 17.3    ?   833  67.5   8.0
2023-07-10 13:41:06 #01111                21.7  5.0    ?  1483  67.5   8.6

2023-07-11 02:22:41 #01111               347.3  5.1    ?  1449 293.3 -18.3
2023-07-11 02:25:33 #01111               279.7 24.5    ?   629 293.4 -18.9
2023-07-11 02:28:27 #01111               212.7  5.0    ?  1471 293.5 -19.6

2023-07-11 13:40:28 #01111               144.5  5.0    ?  1502  67.6   8.4
2023-07-11 13:43:22 #01111                80.2 21.9    ?   704  67.6   9.1
2023-07-11 13:46:14 #01111                15.5  5.1    ?  1479  67.5   9.8

2023-07-12 02:27:48 #01111               341.1  5.1    ?  1451 293.3 -19.4
2023-07-12 02:30:31 #01111               280.0 19.1    ?   757 293.4 -20.0
2023-07-12 02:33:17 #01111               218.8  5.0    ?  1475 293.5 -20.7

2023-07-12 13:45:19 #01111               150.3  5.0    ?  1500  67.7   9.5
2023-07-12 13:48:21 #01111                79.8 28.3    ?   579  67.6  10.2
2023-07-12 13:51:20 #01111                 9.6  5.1    ?  1478  67.6  10.9

2023-07-13 02:32:57 #01111               334.7  5.0    ?  1456 293.4 -20.6
2023-07-13 02:35:29 #01111               280.2 15.1    ?   888 293.5 -21.2
2023-07-13 02:38:03 #01111               225.4  5.1    ?  1470 293.6 -21.8

2023-07-13 13:50:12 #01111               155.9  5.0    ?  1499  67.7  10.6
2023-07-13 13:53:19 #01111                80.2 37.7    ?   464  67.7  11.3
2023-07-13 13:56:24 #01111                 3.9  5.0    ?  1479  67.6  12.1

2023-07-14 02:38:10 #01111               327.4  5.0    ?  1456 293.4 -21.8
2023-07-14 02:40:28 #01111               279.8 12.0    ?  1021 293.5 -22.3
2023-07-14 02:42:47 #01111               232.4  5.0    ?  1475 293.6 -22.8

2023-07-14 13:55:07 #01111               161.4  5.1    ?  1495  67.8  11.7
2023-07-14 13:58:17 #01111                80.7 52.3    ?   366  67.7  12.5
2023-07-14 14:01:25 #01111               358.4  5.1    ?  1473  67.7  13.2

2023-07-15 01:15:23 #01111                87.2  5.0    ?  1470 291.6  -2.6
2023-07-15 01:16:08 #01111               101.0  5.5    ?  1433 291.6  -2.8
2023-07-15 01:16:53 #01111               114.8  5.0    ?  1476 291.6  -3.0

2023-07-15 02:43:27 #01111               319.4  5.0    ?  1460 293.4 -23.0
2023-07-15 02:45:26 #01111               279.8  9.5    ?  1156 293.5 -23.5
2023-07-15 02:47:26 #01111               240.4  5.0    ?  1477 293.6 -23.9

2023-07-15 14:00:03 #01111               166.8  5.0    ?  1497  67.8  12.9
2023-07-15 14:03:15 #01111                82.5 74.5    ?   303  67.8  13.6
2023-07-15 14:06:25 #01111               352.9  5.0    ?  1474  67.7  14.3

2023-07-16 01:19:33 #01111                71.5  5.0    ?  1469 291.5  -3.6
2023-07-16 01:21:05 #01111               100.8  7.3    ?  1298 291.5  -3.9
2023-07-16 01:22:38 #01111               130.2  5.0    ?  1480 291.5  -4.3

2023-07-16 02:48:51 #01111               309.6  5.0    ?  1465 293.5 -24.2
2023-07-16 02:50:24 #01111               279.8  7.4    ?  1291 293.6 -24.6
2023-07-16 02:51:57 #01111               250.3  5.0    ?  1476 293.6 -25.0

2023-07-16 14:05:01 #01111               172.2  5.0    ?  1495  67.9  14.0
2023-07-16 14:08:13 #01111               257.0 77.9    ?   298  67.8  14.7
2023-07-16 14:11:23 #01111               347.5  5.0    ?  1474  67.7  15.5

2023-07-17 01:24:03 #01111                61.3  5.0    ?  1469 291.3  -4.6
2023-07-17 01:26:03 #01111               100.9  9.5    ?  1163 291.3  -5.1
2023-07-17 01:28:03 #01111               140.1  5.0    ?  1482 291.4  -5.5

2023-07-17 02:54:34 #01111               294.6  5.0    ?  1469 293.6 -25.6
2023-07-17 02:55:22 #01111               279.8  5.6    ?  1427 293.6 -25.7
2023-07-17 02:56:10 #01111               265.1  5.0    ?  1477 293.7 -25.9

2023-07-17 14:10:01 #01111               177.6  5.1    ?  1491  67.9  15.2
2023-07-17 14:13:11 #01111               259.5 54.5    ?   354  67.9  15.9
2023-07-17 14:16:18 #01111               341.9  5.1    ?  1466  67.8  16.6

2023-07-18 01:28:41 #01111                53.1  5.0    ?  1468 291.2  -5.7
2023-07-18 01:31:00 #01111               100.7 12.0    ?  1029 291.2  -6.2
2023-07-18 01:33:20 #01111               148.1  5.1    ?  1483 291.2  -6.8

2023-07-18 14:15:02 #01111               183.0  5.0    ?  1491  68.0  16.3
2023-07-18 14:18:09 #01111               260.1 39.0    ?   448  67.9  17.0
2023-07-18 14:21:12 #01111               336.3  5.1    ?  1464  67.8  17.7

2023-07-19 01:33:23 #01111                45.8  5.0    ?  1471 291.1  -6.8
2023-07-19 01:35:57 #01111               100.5 15.2    ?   896 291.1  -7.4
2023-07-19 01:38:33 #01111               155.2  5.0    ?  1487 291.1  -8.0

2023-07-19 14:20:05 #01111               188.7  5.0    ?  1489  68.0  17.5
2023-07-19 14:23:06 #01111               259.5 29.0    ?   561  67.9  18.2
2023-07-19 14:26:04 #01111               330.6  5.1    ?  1464  67.8  18.9

2023-07-20 01:38:09 #01111                39.3  5.0    ?  1469 290.9  -7.9
2023-07-20 01:40:55 #01111               100.8 19.2    ?   766 290.9  -8.5
2023-07-20 01:43:42 #01111               161.7  5.1    ?  1488 291.0  -9.2

2023-07-20 14:25:10 #01111               194.5  5.0    ?  1487  68.1  18.7
2023-07-20 14:28:03 #01111               259.3 22.3    ?   684  68.0  19.3
2023-07-20 14:30:54 #01111               324.6  5.0    ?  1464  67.9  20.0

2023-07-21 01:42:57 #01111                33.1  5.0    ?  1472 290.8  -9.0
2023-07-21 01:45:52 #01111               100.7 24.6    ?   639 290.8  -9.7
2023-07-21 01:48:49 #01111               167.8  5.0    ?  1494 290.9 -10.3

2023-07-21 14:30:17 #01111               200.6  5.0    ?  1487  68.1  19.9
2023-07-21 14:33:00 #01111               259.2 17.5    ?   812  68.0  20.5
2023-07-21 14:35:41 #01111               318.2  5.1    ?  1462  67.9  21.1

2023-07-22 01:47:48 #01111                27.3  5.1    ?  1469 290.7 -10.1
2023-07-22 01:50:49 #01111               100.6 32.3    ?   519 290.7 -10.8
2023-07-22 01:53:53 #01111               173.5  5.0    ?  1496 290.8 -11.5

2023-07-22 14:35:28 #01111               207.5  5.1    ?  1479  68.1  21.1
2023-07-22 14:37:57 #01111               259.2 13.9    ?   943  68.0  21.7
2023-07-22 14:40:25 #01111               311.4  5.1    ?  1461  67.9  22.2

2023-07-23 01:52:40 #01111                21.6  5.1    ?  1472 290.5 -11.3
2023-07-23 01:55:46 #01111               100.6 44.0    ?   412 290.6 -12.0
2023-07-23 01:58:55 #01111               179.0  5.0    ?  1498 290.6 -12.7

2023-07-23 14:40:41 #01111               214.7  5.0    ?  1480  68.1  22.3
2023-07-23 14:42:54 #01111               259.3 11.0    ?  1076  68.0  22.8
2023-07-23 14:45:06 #01111               304.0  5.0    ?  1465  68.0  23.3

2023-07-24 01:57:34 #01111                16.1  5.0    ?  1474 290.4 -12.4
2023-07-24 02:00:43 #01111               100.8 62.1    ?   329 290.5 -13.1
2023-07-24 02:03:55 #01111               184.4  5.0    ?  1500 290.5 -13.9

2023-07-24 13:17:25 #01111               100.9  5.0    ?  1472  70.1   3.0
2023-07-24 13:18:32 #01111                80.0  6.1    ?  1378  70.1   3.3
2023-07-24 13:19:38 #01111                59.3  5.0    ?  1463  70.1   3.5

2023-07-24 14:46:00 #01111               223.4  5.0    ?  1477  68.1  23.6
2023-07-24 14:47:50 #01111               259.0  8.6    ?  1210  68.1  24.0
2023-07-24 14:49:40 #01111               295.0  5.0    ?  1462  68.0  24.4

2023-07-25 02:02:30 #01111                10.6  5.1    ?  1473 290.3 -13.6
2023-07-25 02:05:40 #01111               111.9 87.7    ?   294 290.3 -14.3
2023-07-25 02:08:53 #01111               189.7  5.0    ?  1501 290.4 -15.1

2023-07-25 13:21:46 #01111               113.1  5.0    ?  1471  70.3   4.0
2023-07-25 13:23:29 #01111                79.9  8.0    ?  1243  70.3   4.4
2023-07-25 13:25:10 #01111                47.1  5.0    ?  1456  70.3   4.8

2023-07-25 14:51:29 #01111               234.7  5.0    ?  1473  68.1  24.9
2023-07-25 14:52:47 #01111               259.1  6.6    ?  1345  68.1  25.2
2023-07-25 14:54:05 #01111               283.8  5.0    ?  1465  68.0  25.5

2023-07-26 02:07:27 #01111                 5.2  5.1    ?  1477 290.2 -14.8
2023-07-26 02:10:37 #01111               278.5 65.9    ?   321 290.2 -15.5
2023-07-26 02:13:49 #01111               195.1  5.1    ?  1500 290.3 -16.2

2023-07-26 13:26:19 #01111               122.2  5.0    ?  1470  70.5   5.1
2023-07-26 13:28:25 #01111                80.2 10.2    ?  1108  70.5   5.6
2023-07-26 13:30:31 #01111                37.7  5.0    ?  1457  70.4   6.0

2023-07-27 02:12:26 #01111               359.7  5.1    ?  1478 290.0 -15.9
2023-07-27 02:15:33 #01111               280.5 46.6    ?   398 290.1 -16.7
2023-07-27 02:18:44 #01111               200.4  5.0    ?  1505 290.2 -17.4

2023-07-27 13:30:58 #01111               129.9  5.0    ?  1469  70.7   6.2
2023-07-27 13:33:22 #01111                80.1 12.9    ?   975  70.6   6.7
2023-07-27 13:35:44 #01111                30.2  5.1    ?  1450  70.6   7.3

2023-07-28 02:17:26 #01111               354.2  5.0    ?  1485 289.9 -17.1
2023-07-28 02:20:30 #01111               280.0 34.2    ?   503 290.0 -17.9
2023-07-28 02:23:36 #01111               205.9  5.1    ?  1502 290.1 -18.6

2023-07-28 13:35:41 #01111               136.8  5.0    ?  1468  70.8   7.3
2023-07-28 13:38:19 #01111                79.8 16.2    ?   843  70.8   7.9
2023-07-28 13:40:54 #01111                23.2  5.0    ?  1449  70.8   8.5

2023-07-29 02:22:29 #01111               348.5  5.1    ?  1483 289.8 -18.4
2023-07-29 02:25:26 #01111               280.4 26.0    ?   621 289.9 -19.1
2023-07-29 02:28:27 #01111               211.5  5.0    ?  1507 290.0 -19.8

2023-07-29 13:40:27 #01111               143.1  5.0    ?  1466  71.0   8.4
2023-07-29 13:43:15 #01111                79.9 20.6    ?   713  71.0   9.1
2023-07-29 13:46:01 #01111                16.8  5.0    ?  1450  70.9   9.7

2023-07-30 02:27:33 #01111               342.6  5.0    ?  1488 289.7 -19.6
2023-07-30 02:30:23 #01111               280.0 20.4    ?   746 289.8 -20.3
2023-07-30 02:33:15 #01111               217.4  5.0    ?  1506 289.9 -20.9

2023-07-30 13:45:15 #01111               149.2  5.0    ?  1467  71.2   9.5
2023-07-30 13:48:11 #01111                80.1 26.5    ?   588  71.1  10.2
2023-07-30 13:51:05 #01111                10.8  5.0    ?  1448  71.1  10.9

2023-07-31 02:32:40 #01111               336.4  5.0    ?  1489 289.6 -20.8
2023-07-31 02:35:19 #01111               280.2 16.2    ?   876 289.7 -21.5
2023-07-31 02:38:00 #01111               223.7  5.1    ?  1504 289.8 -22.1

2023-07-31 13:50:06 #01111               154.8  5.1    ?  1460  71.4  10.7
2023-07-31 13:53:07 #01111                80.1 35.3    ?   471  71.3  11.4
2023-07-31 13:56:06 #01111                 5.0  5.1    ?  1442  71.3  12.1

2023-08-01 02:37:50 #01111               329.5  5.1    ?  1490 289.5 -22.1
2023-08-01 02:40:16 #01111               279.8 12.9    ?  1008 289.6 -22.7
2023-08-01 02:42:43 #01111               230.4  5.0    ?  1508 289.7 -23.2

2023-08-01 13:54:58 #01111               160.4  5.1    ?  1460  71.5  11.9
2023-08-01 13:58:03 #01111                80.1 48.8    ?   370  71.5  12.6
2023-08-01 14:01:06 #01111               359.4  5.0    ?  1443  71.4  13.3

2023-08-02 01:15:03 #01111                85.5  5.0    ?  1502 287.9  -2.5
2023-08-02 01:15:54 #01111               100.9  5.6    ?  1455 287.9  -2.7
2023-08-02 01:16:45 #01111               116.2  5.0    ?  1507 287.9  -2.9

2023-08-02 02:43:03 #01111               322.1  5.0    ?  1495 289.4 -23.4
2023-08-02 02:45:12 #01111               279.9 10.3    ?  1141 289.5 -23.9
2023-08-02 02:47:21 #01111               238.0  5.0    ?  1507 289.6 -24.4

2023-08-02 13:59:52 #01111               165.9  5.1    ?  1457  71.7  13.1
2023-08-02 14:02:59 #01111                79.4 70.2    ?   299  71.6  13.8
2023-08-02 14:06:04 #01111               353.8  5.0    ?  1444  71.6  14.5

2023-08-03 01:19:14 #01111                71.0  5.0    ?  1500 287.6  -3.5
2023-08-03 01:20:50 #01111               100.9  7.5    ?  1320 287.7  -3.9
2023-08-03 01:22:25 #01111               130.4  5.0    ?  1508 287.7  -4.3

2023-08-03 02:48:23 #01111               313.1  5.0    ?  1496 289.3 -24.7
2023-08-03 02:50:08 #01111               279.9  8.1    ?  1275 289.4 -25.1
2023-08-03 02:51:53 #01111               247.0  5.0    ?  1507 289.5 -25.5

2023-08-03 14:04:47 #01111               171.4  5.0    ?  1459  71.9  14.3
2023-08-03 14:07:55 #01111               265.1 81.8    ?   285  71.8  15.0
2023-08-03 14:11:00 #01111               348.3  5.0    ?  1444  71.7  15.7

2023-08-04 01:23:43 #01111                61.3  5.0    ?  1498 287.4  -4.6
2023-08-04 01:25:45 #01111               100.7  9.6    ?  1186 287.4  -5.1
2023-08-04 01:27:48 #01111               140.1  5.0    ?  1510 287.4  -5.6

2023-08-04 02:53:54 #01111               301.3  5.0    ?  1501 289.3 -26.0
2023-08-04 02:55:03 #01111               280.2  6.2    ?  1410 289.3 -26.3
2023-08-04 02:56:13 #01111               258.9  5.0    ?  1507 289.3 -26.6

2023-08-04 14:09:44 #01111               176.9  5.0    ?  1458  72.0  15.5
2023-08-04 14:12:50 #01111               259.8 56.9    ?   333  72.0  16.2
2023-08-04 14:15:54 #01111               342.7  5.0    ?  1443  71.9  17.0

2023-08-05 01:28:19 #01111                53.3  5.1    ?  1498 287.2  -5.7
2023-08-05 01:30:40 #01111               100.4 12.1    ?  1053 287.2  -6.3
2023-08-05 01:33:03 #01111               147.9  5.0    ?  1511 287.2  -6.9

2023-08-05 14:14:43 #01111               182.4  5.1    ?  1455  72.2  16.7
2023-08-05 14:17:45 #01111               259.3 40.3    ?   424  72.1  17.4
2023-08-05 14:20:46 #01111               337.1  5.0    ?  1441  72.0  18.2

2023-08-06 01:32:59 #01111                46.1  5.0    ?  1500 286.9  -6.9
2023-08-06 01:35:36 #01111               100.6 15.1    ?   921 286.9  -7.5
2023-08-06 01:38:14 #01111               154.9  5.0    ?  1514 287.0  -8.1

2023-08-06 14:19:43 #01111               188.1  5.0    ?  1457  72.4  18.0
2023-08-06 14:22:40 #01111               259.2 29.7    ?   535  72.3  18.7
2023-08-06 14:25:36 #01111               331.3  5.1    ?  1440  72.2  19.4

2023-08-07 01:37:43 #01111                39.7  5.1    ?  1498 286.7  -8.0
2023-08-07 01:40:31 #01111               100.4 19.0    ?   791 286.7  -8.7
2023-08-07 01:43:21 #01111               161.2  5.0    ?  1514 286.7  -9.4

2023-08-07 14:24:45 #01111               193.9  5.0    ?  1458  72.5  19.2
2023-08-07 14:27:35 #01111               259.2 22.8    ?   657  72.4  19.9
2023-08-07 14:30:24 #01111               325.3  5.1    ?  1440  72.4  20.6

2023-08-08 01:42:29 #01111                33.7  5.0    ?  1499 286.4  -9.2
2023-08-08 01:45:26 #01111               100.2 24.1    ?   665 286.5  -9.9
2023-08-08 01:48:25 #01111               167.0  5.0    ?  1512 286.5 -10.7

2023-08-08 14:29:50 #01111               200.2  5.0    ?  1454  72.7  20.5
2023-08-08 14:32:30 #01111               259.3 17.8    ?   784  72.6  21.1
2023-08-08 14:35:10 #01111               319.1  5.0    ?  1444  72.5  21.8

2023-08-09 01:47:17 #01111                27.9  5.0    ?  1502 286.2 -10.4
2023-08-09 01:50:22 #01111               100.8 31.3    ?   545 286.3 -11.2
2023-08-09 01:53:27 #01111               172.6  5.0    ?  1512 286.3 -11.9

2023-08-09 14:34:57 #01111               206.8  5.0    ?  1454  72.8  21.8
2023-08-09 14:37:25 #01111               259.4 14.1    ?   914  72.7  22.4
2023-08-09 14:39:52 #01111               312.2  5.1    ?  1441  72.7  22.9

2023-08-10 01:52:08 #01111                22.4  5.1    ?  1497 286.0 -11.6
2023-08-10 01:55:17 #01111               100.9 42.0    ?   436 286.0 -12.4
2023-08-10 01:58:27 #01111               178.1  5.0    ?  1512 286.1 -13.2

2023-08-10 14:40:08 #01111               214.2  5.0    ?  1451  73.0  23.1
2023-08-10 14:42:20 #01111               259.5 11.2    ?  1046  72.9  23.6
2023-08-10 14:44:31 #01111               304.8  5.1    ?  1442  72.8  24.1

2023-08-11 01:57:00 #01111                17.0  5.1    ?  1496 285.8 -12.9
2023-08-11 02:00:12 #01111               101.4 58.4    ?   348 285.8 -13.6
2023-08-11 02:03:25 #01111               183.4  5.0    ?  1511 285.9 -14.4

2023-08-11 13:17:10 #01111                94.1  5.0    ?  1449  74.7   3.4
2023-08-11 13:17:56 #01111                79.7  5.5    ?  1406  74.7   3.6
2023-08-11 13:18:42 #01111                65.3  5.0    ?  1447  74.7   3.7

2023-08-11 14:45:23 #01111               222.6  5.0    ?  1453  73.1  24.4
2023-08-11 14:47:14 #01111               259.3  8.8    ?  1179  73.0  24.8
2023-08-11 14:49:05 #01111               296.2  5.0    ?  1445  73.0  25.3

2023-08-12 02:01:53 #01111                11.7  5.0    ?  1501 285.5 -14.1
2023-08-12 02:05:06 #01111                95.6 82.3    ?   302 285.6 -14.9
2023-08-12 02:08:21 #01111               188.7  5.0    ?  1510 285.6 -15.7

2023-08-12 13:21:19 #01111               109.4  5.0    ?  1449  75.0   4.4
2023-08-12 13:22:50 #01111                79.9  7.4    ?  1271  75.0   4.7
2023-08-12 13:24:21 #01111                50.4  5.0    ?  1444  75.0   5.1

2023-08-12 14:50:48 #01111               233.6  5.0    ?  1450  73.2  25.8
2023-08-12 14:52:09 #01111               259.5  6.8    ?  1313  73.2  26.1
2023-08-12 14:53:29 #01111               285.2  5.0    ?  1446  73.1  26.4

2023-08-13 02:06:48 #01111                 6.4  5.0    ?  1502 285.3 -15.3
2023-08-13 02:10:01 #01111               281.1 71.2    ?   315 285.4 -16.1
2023-08-13 02:13:15 #01111               193.9  5.1    ?  1506 285.4 -16.9

2023-08-13 13:25:47 #01111               119.3  5.0    ?  1449  75.2   5.5
2023-08-13 13:27:45 #01111                79.7  9.5    ?  1138  75.2   5.9
2023-08-13 13:29:42 #01111                40.4  5.0    ?  1443  75.2   6.4

2023-08-14 02:11:45 #01111                 1.1  5.0    ?  1500 285.1 -16.6
2023-08-14 02:14:56 #01111               280.0 50.5    ?   382 285.1 -17.4
2023-08-14 02:18:08 #01111               199.2  5.0    ?  1509 285.2 -18.1

2023-08-14 13:30:22 #01111               127.5  5.0    ?  1449  75.5   6.6
2023-08-14 13:32:39 #01111                79.9 12.0    ?  1005  75.5   7.2
2023-08-14 13:34:56 #01111                32.1  5.0    ?  1445  75.5   7.7

2023-08-15 02:16:43 #01111               355.7  5.0    ?  1503 284.8 -17.9
2023-08-15 02:19:50 #01111               280.7 36.8    ?   480 284.9 -18.6
2023-08-15 02:22:59 #01111               204.6  5.0    ?  1511 285.0 -19.4

2023-08-15 13:35:01 #01111               134.7  5.0    ?  1452  75.8   7.8
2023-08-15 13:37:33 #01111                80.0 15.1    ?   874  75.8   8.4
2023-08-15 13:40:05 #01111                25.0  5.0    ?  1447  75.7   9.0

2023-08-16 02:21:43 #01111               350.1  5.0    ?  1503 284.6 -19.1
2023-08-16 02:24:45 #01111               280.1 27.9    ?   594 284.7 -19.9
2023-08-16 02:27:47 #01111               210.2  5.1    ?  1505 284.8 -20.6

2023-08-16 13:39:44 #01111               141.2  5.0    ?  1451  76.1   9.0
2023-08-16 13:42:27 #01111                80.1 19.2    ?   745  76.0   9.6
2023-08-16 13:45:10 #01111                18.5  5.1    ?  1444  76.0  10.3

2023-08-17 02:26:45 #01111               344.4  5.0    ?  1503 284.4 -20.4
2023-08-17 02:29:39 #01111               280.3 21.7    ?   717 284.5 -21.1
2023-08-17 02:32:34 #01111               216.0  5.0    ?  1508 284.5 -21.8

2023-08-17 13:44:29 #01111               147.4  5.0    ?  1453  76.3  10.2
2023-08-17 13:47:21 #01111                80.2 24.6    ?   620  76.3  10.9
2023-08-17 13:50:13 #01111                12.3  5.0    ?  1447  76.3  11.6

2023-08-18 02:31:50 #01111               338.2  5.1    ?  1498 284.2 -21.8
2023-08-18 02:34:33 #01111               280.4 17.2    ?   844 284.2 -22.4
2023-08-18 02:37:18 #01111               222.1  5.0    ?  1507 284.3 -23.1

2023-08-18 13:49:17 #01111               153.2  5.1    ?  1449  76.6  11.4
2023-08-18 13:52:15 #01111                80.1 32.4    ?   501  76.6  12.1
2023-08-18 13:55:13 #01111                 6.5  5.1    ?  1445  76.5  12.9

2023-08-19 02:36:57 #01111               331.6  5.1    ?  1498 284.0 -23.1
2023-08-19 02:39:27 #01111               280.4 13.7    ?   974 284.0 -23.7
2023-08-19 02:41:58 #01111               228.8  5.1    ?  1501 284.1 -24.3

2023-08-19 13:54:06 #01111               158.8  5.1    ?  1451  76.9  12.7
2023-08-19 13:57:09 #01111                79.9 44.4    ?   395  76.8  13.4
2023-08-19 14:00:12 #01111                 0.8  5.0    ?  1450  76.8  14.1

2023-08-20 02:42:07 #01111               324.4  5.0    ?  1501 283.7 -24.4
2023-08-20 02:44:21 #01111               280.4 10.9    ?  1106 283.8 -25.0
2023-08-20 02:46:36 #01111               236.0  5.0    ?  1505 283.9 -25.5

2023-08-20 13:58:57 #01111               164.4  5.1    ?  1451  77.1  13.9
2023-08-20 14:02:03 #01111                78.8 63.3    ?   315  77.1  14.7
2023-08-20 14:05:08 #01111               355.3  5.1    ?  1448  77.0  15.4

2023-08-21 01:18:32 #01111                74.2  5.0    ?  1499 282.3  -4.1
2023-08-21 01:19:57 #01111               100.5  6.9    ?  1356 282.3  -4.5
2023-08-21 01:21:22 #01111               126.8  5.0    ?  1500 282.3  -4.8

2023-08-21 02:47:23 #01111               315.9  5.0    ?  1500 283.5 -25.8
2023-08-21 02:49:15 #01111               280.3  8.6    ?  1239 283.6 -26.2
2023-08-21 02:51:07 #01111               244.7  5.0    ?  1501 283.6 -26.7

2023-08-21 14:03:49 #01111               169.8  5.0    ?  1456  77.4  15.2
2023-08-21 14:06:56 #01111               142.1 89.6    ?   283  77.3  15.9
2023-08-21 14:10:03 #01111               349.9  5.0    ?  1453  77.3  16.7

2023-08-22 01:22:56 #01111                63.8  5.0    ?  1497 282.0  -5.3
2023-08-22 01:24:51 #01111               100.6  8.9    ?  1222 282.0  -5.7
2023-08-22 01:26:45 #01111               137.1  5.0    ?  1498 282.0  -6.2

2023-08-22 02:52:48 #01111               305.1  5.0    ?  1500 283.3 -27.2
2023-08-22 02:54:09 #01111               280.2  6.6    ?  1372 283.3 -27.5
2023-08-22 02:55:29 #01111               255.6  5.0    ?  1501 283.4 -27.9

2023-08-22 14:08:43 #01111               175.2  5.0    ?  1458  77.7  16.4
2023-08-22 14:11:50 #01111               261.0 63.6    ?   315  77.6  17.2
2023-08-22 14:14:56 #01111               344.4  5.0    ?  1456  77.5  18.0

2023-08-23 01:27:28 #01111                55.4  5.0    ?  1498 281.7  -6.4
2023-08-23 01:29:44 #01111               100.4 11.2    ?  1089 281.7  -7.0
2023-08-23 01:32:00 #01111               145.4  5.0    ?  1499 281.7  -7.5

2023-08-23 14:13:39 #01111               180.7  5.0    ?  1457  77.9  17.7
2023-08-23 14:16:43 #01111               259.9 44.8    ?   395  77.9  18.5
2023-08-23 14:19:47 #01111               338.9  5.0    ?  1458  77.8  19.2

2023-08-24 01:32:06 #01111                48.3  5.1    ?  1493 281.3  -7.6
2023-08-24 01:34:37 #01111               100.2 14.0    ?   958 281.3  -8.3
2023-08-24 01:37:09 #01111               152.5  5.0    ?  1497 281.4  -8.9

2023-08-24 14:18:36 #01111               186.2  5.0    ?  1461  78.2  19.0
2023-08-24 14:21:36 #01111               259.7 32.8    ?   501  78.1  19.8
2023-08-24 14:24:36 #01111               333.3  5.0    ?  1459  78.1  20.5

2023-08-25 01:36:47 #01111                41.8  5.1    ?  1491 281.0  -8.9
2023-08-25 01:39:30 #01111               100.0 17.5    ?   828 281.0  -9.5
2023-08-25 01:42:14 #01111               158.8  5.0    ?  1492 281.1 -10.2

2023-08-25 14:23:36 #01111               192.0  5.1    ?  1457  78.4  20.3
2023-08-25 14:26:29 #01111               259.6 25.0    ?   619  78.4  21.0
2023-08-25 14:29:23 #01111               327.6  5.0    ?  1461  78.3  21.7

2023-08-26 01:41:30 #01111                35.6  5.0    ?  1493 280.7 -10.1
2023-08-26 01:44:24 #01111               100.5 22.1    ?   701 280.7 -10.8
2023-08-26 01:47:17 #01111               164.9  5.0    ?  1492 280.7 -11.5

2023-08-26 14:28:37 #01111               198.0  5.1    ?  1460  78.7  21.7
2023-08-26 14:31:22 #01111               259.7 19.6    ?   744  78.7  22.3
2023-08-26 14:34:08 #01111               321.6  5.0    ?  1465  78.6  23.0

2023-08-27 01:46:16 #01111                29.8  5.0    ?  1490 280.4 -11.4
2023-08-27 01:49:17 #01111               100.6 28.3    ?   579 280.4 -12.1
2023-08-27 01:52:17 #01111               170.6  5.0    ?  1488 280.4 -12.8

2023-08-27 14:33:40 #01111               204.2  5.0    ?  1465  79.0  23.0
2023-08-27 14:36:15 #01111               259.8 15.5    ?   872  78.9  23.6
2023-08-27 14:38:50 #01111               315.2  5.0    ?  1466  78.9  24.3

2023-08-28 01:51:04 #01111                24.3  5.1    ?  1486 280.1 -12.6
2023-08-28 01:54:10 #01111               100.8 37.5    ?   465 280.1 -13.4
2023-08-28 01:57:15 #01111               176.1  5.0    ?  1486 280.1 -14.1

2023-08-28 14:38:47 #01111               211.2  5.0    ?  1464  79.2  24.3
2023-08-28 14:41:08 #01111               259.9 12.4    ?  1003  79.2  24.9
2023-08-28 14:43:29 #01111               308.3  5.0    ?  1469  79.1  25.5

2023-08-29 01:55:53 #01111                18.8  5.0    ?  1487 279.8 -13.9
2023-08-29 01:59:02 #01111                99.5 51.7    ?   368 279.8 -14.7
2023-08-29 02:02:11 #01111               181.5  5.1    ?  1482 279.8 -15.4

2023-08-29 14:43:57 #01111               218.7  5.0    ?  1469  79.5  25.7
2023-08-29 14:46:00 #01111               259.6  9.9    ?  1135  79.5  26.2
2023-08-29 14:48:03 #01111               300.4  5.0    ?  1468  79.4  26.7

2023-08-30 02:00:44 #01111                13.5  5.0    ?  1486 279.4 -15.2
2023-08-30 02:03:55 #01111               100.1 73.2    ?   304 279.5 -16.0
2023-08-30 02:07:05 #01111               186.8  5.1    ?  1478 279.5 -16.7

2023-08-30 13:20:09 #01111               106.6  5.0    ?  1470  80.9   5.3
2023-08-30 13:21:34 #01111                79.8  7.0    ?  1321  80.9   5.6
2023-08-30 13:23:00 #01111                52.6  5.0    ?  1471  80.9   6.0

2023-08-30 14:49:14 #01111               228.0  5.0    ?  1471  79.8  27.1
2023-08-30 14:50:53 #01111               259.7  7.7    ?  1268  79.7  27.5
2023-08-30 14:52:31 #01111               291.1  5.0    ?  1471  79.7  27.9

2023-08-31 02:05:37 #01111                 8.2  5.1    ?  1481 279.1 -16.5
2023-08-31 02:08:48 #01111               276.6 79.8    ?   296 279.1 -17.3
2023-08-31 02:11:58 #01111               192.2  5.0    ?  1480 279.2 -18.0

2023-08-31 13:24:32 #01111               117.2  5.0    ?  1472  81.3   6.4
2023-08-31 13:26:27 #01111                79.6  9.0    ?  1188  81.3   6.9
2023-08-31 13:28:22 #01111                42.0  5.0    ?  1475  81.3   7.3

2023-08-31 14:54:44 #01111               240.7  5.0    ?  1474  80.0  28.6
2023-08-31 14:55:45 #01111               259.6  5.9    ?  1401  80.0  28.8
2023-08-31 14:56:45 #01111               278.2  5.0    ?  1473  80.0  29.1

2023-09-01 02:10:31 #01111                 2.8  5.0    ?  1480 278.8 -17.8
2023-09-01 02:13:40 #01111               280.2 56.2    ?   347 278.8 -18.5
2023-09-01 02:16:49 #01111               197.5  5.0    ?  1480 278.9 -19.3

2023-09-01 13:29:03 #01111               125.6  5.0    ?  1476  81.6   7.6
2023-09-01 13:31:19 #01111                79.7 11.4    ?  1057  81.6   8.2
2023-09-01 13:33:35 #01111                33.8  5.0    ?  1477  81.6   8.7

2023-09-02 02:15:27 #01111               357.4  5.1    ?  1477 278.5 -19.1
2023-09-02 02:18:32 #01111               280.6 40.3    ?   436 278.5 -19.8
2023-09-02 02:21:37 #01111               203.0  5.1    ?  1472 278.5 -20.6

2023-09-02 13:33:40 #01111               132.8  5.1    ?  1474  82.0   8.8
2023-09-02 13:36:11 #01111                79.8 14.4    ?   926  81.9   9.4
2023-09-02 13:38:43 #01111                26.6  5.0    ?  1479  81.9  10.1

2023-09-03 02:20:24 #01111               351.9  5.0    ?  1478 278.1 -20.4
2023-09-03 02:23:24 #01111               280.6 30.0    ?   546 278.2 -21.1
2023-09-03 02:26:24 #01111               208.6  5.1    ?  1471 278.2 -21.9

2023-09-03 13:38:19 #01111               139.5  5.0    ?  1480  82.3  10.0
2023-09-03 13:41:03 #01111                79.9 18.1    ?   797  82.3  10.7
2023-09-03 13:43:47 #01111                20.1  5.0    ?  1478  82.3  11.4

