ADCS_n_Propulsion/Orbital pass data/90d_lat60.txt

Satellite passes / Orbitron 3.71 / www.stoff.pl

Location      : Picked Site (14.7466° E, 60.0000° N)
Time zone     : UTC +2:00
Search period : 2023-06-05 16:13:35 - 90 days
                2023-09-03 16:13:35
Conditions    : Maximum sun elevation = None
                Minimum sat elevation = 5 deg
                Illumination NOT required

Time                Satellite              Azm  Elv  Mag Range S.Azm S.Elv
--------------------------------------------------------------------------
2023-06-05 20:09:54 #01111                27.9  5.1    ?  1534 296.2  11.2
2023-06-05 20:12:58 #01111                96.3 25.2    ?   653 296.9  10.9
2023-06-05 20:15:59 #01111               164.4  5.0    ?  1513 297.5  10.5

2023-06-05 21:39:33 #01111               359.6  5.1    ?  1535 314.9   2.3
2023-06-05 21:42:30 #01111               296.2 22.1    ?   723 315.6   2.1
2023-06-05 21:45:26 #01111               232.0  5.0    ?  1517 316.2   1.9

2023-06-06 06:27:48 #01111               126.8  5.0    ?  1523  71.7  15.7
2023-06-06 06:30:43 #01111                63.8 21.4    ?   743  72.3  16.0
2023-06-06 06:33:40 #01111                 0.8  5.0    ?  1542  72.9  16.4

2023-06-06 07:57:12 #01111               194.2  5.1    ?  1514  90.4  26.6
2023-06-06 08:00:15 #01111               263.8 26.5    ?   633  91.1  27.0
2023-06-06 08:03:20 #01111               332.8  5.1    ?  1536  91.7  27.4

2023-06-06 20:14:55 #01111                26.0  5.0    ?  1537 297.3  10.8
2023-06-06 20:18:03 #01111                97.5 28.8    ?   590 297.9  10.4
2023-06-06 20:21:07 #01111               168.4  5.0    ?  1510 298.5  10.1

2023-06-06 21:44:39 #01111               358.0  5.0    ?  1537 316.0   2.0
2023-06-06 21:47:32 #01111               297.1 19.8    ?   782 316.7   1.8
2023-06-06 21:50:23 #01111               235.9  5.0    ?  1515 317.3   1.6

2023-06-07 06:32:46 #01111               130.6  5.0    ?  1521  72.6  16.3
2023-06-07 06:35:45 #01111                64.8 23.9    ?   684  73.2  16.7
2023-06-07 06:38:46 #01111               359.2  5.0    ?  1542  73.8  17.0

2023-06-07 08:02:20 #01111               198.2  5.0    ?  1520  91.4  27.3
2023-06-07 08:05:20 #01111               264.9 23.3    ?   697  92.1  27.7
2023-06-07 08:08:21 #01111               330.9  5.1    ?  1536  92.7  28.1

2023-06-07 20:19:57 #01111                24.3  5.0    ?  1534 298.3  10.3
2023-06-07 20:23:07 #01111                98.1 33.1    ?   530 299.0  10.0
2023-06-07 20:26:14 #01111               172.4  5.1    ?  1507 299.6   9.6

2023-06-07 21:49:46 #01111               356.2  5.1    ?  1533 317.1   1.7
2023-06-07 21:52:34 #01111               297.9 17.8    ?   842 317.7   1.5
2023-06-07 21:55:19 #01111               239.9  5.1    ?  1512 318.3   1.3

2023-06-08 06:37:44 #01111               134.5  5.0    ?  1523  73.5  17.0
2023-06-08 06:40:47 #01111                65.8 26.9    ?   626  74.2  17.3
2023-06-08 06:43:51 #01111               357.7  5.1    ?  1538  74.8  17.7

2023-06-08 08:07:30 #01111               202.4  5.1    ?  1517  92.4  28.0
2023-06-08 08:10:25 #01111               265.9 20.6    ?   762  93.1  28.4
2023-06-08 08:13:22 #01111               329.0  5.0    ?  1540  93.7  28.8

2023-06-08 20:24:59 #01111                22.6  5.0    ?  1532 299.4   9.9
2023-06-08 20:28:11 #01111                98.9 38.3    ?   473 300.0   9.5
2023-06-08 20:31:21 #01111               176.3  5.0    ?  1509 300.7   9.2

2023-06-08 21:54:52 #01111               354.6  5.0    ?  1537 318.2   1.4
2023-06-08 21:57:35 #01111               299.1 16.0    ?   901 318.8   1.2
2023-06-08 22:00:15 #01111               243.9  5.0    ?  1513 319.4   1.0

2023-06-09 06:42:43 #01111               138.2  5.0    ?  1521  74.5  17.6
2023-06-09 06:45:49 #01111                66.8 30.5    ?   569  75.1  18.0
2023-06-09 06:48:56 #01111               356.2  5.1    ?  1537  75.7  18.4

2023-06-09 08:12:40 #01111               206.6  5.1    ?  1519  93.5  28.7
2023-06-09 08:15:30 #01111               267.0 18.3    ?   829  94.1  29.1
2023-06-09 08:18:22 #01111               327.0  5.0    ?  1540  94.8  29.4

2023-06-09 20:30:01 #01111                20.9  5.0    ?  1532 300.4   9.4
2023-06-09 20:33:15 #01111                99.9 44.8    ?   420 301.1   9.1
2023-06-09 20:36:26 #01111               180.1  5.1    ?  1502 301.7   8.7

2023-06-09 22:00:00 #01111               352.6  5.1    ?  1530 319.3   1.1
2023-06-09 22:02:36 #01111               300.2 14.5    ?   960 319.9   0.9
2023-06-09 22:05:10 #01111               247.9  5.0    ?  1514 320.4   0.8

2023-06-10 06:47:42 #01111               141.9  5.0    ?  1523  75.4  18.3
2023-06-10 06:50:51 #01111                67.8 34.8    ?   514  76.1  18.7
2023-06-10 06:54:01 #01111               354.7  5.0    ?  1538  76.7  19.0

2023-06-10 08:17:51 #01111               211.0  5.1    ?  1519  94.5  29.4
2023-06-10 08:20:35 #01111               268.0 16.3    ?   896  95.1  29.8
2023-06-10 08:23:21 #01111               324.8  5.0    ?  1539  95.8  30.1

2023-06-10 20:35:03 #01111                19.3  5.0    ?  1533 301.4   9.0
2023-06-10 20:38:19 #01111               101.5 52.9    ?   374 302.1   8.6
2023-06-10 20:41:31 #01111               184.0  5.0    ?  1501 302.8   8.3

2023-06-10 22:05:07 #01111               350.7  5.0    ?  1532 320.4   0.8
2023-06-10 22:07:36 #01111               301.6 13.1    ?  1019 320.9   0.7
2023-06-10 22:10:04 #01111               252.1  5.0    ?  1514 321.5   0.5

2023-06-11 05:26:05 #01111                65.4  5.0    ?  1536  58.6   9.0
2023-06-11 05:26:59 #01111                49.5  5.7    ?  1482  58.8   9.1
2023-06-11 05:27:53 #01111                33.6  5.0    ?  1539  58.9   9.2

2023-06-11 06:52:42 #01111               145.6  5.1    ?  1520  76.3  18.9
2023-06-11 06:55:53 #01111                68.9 40.1    ?   462  77.0  19.3
2023-06-11 06:59:05 #01111               353.2  5.1    ?  1535  77.7  19.7

2023-06-11 08:23:02 #01111               215.4  5.0    ?  1525  95.6  30.1
2023-06-11 08:25:40 #01111               268.9 14.5    ?   964  96.2  30.4
2023-06-11 08:28:19 #01111               322.5  5.0    ?  1536  96.8  30.8

2023-06-11 19:12:14 #01111                65.9  5.0    ?  1524 284.4  18.5
2023-06-11 19:13:11 #01111                82.9  5.7    ?  1460 284.6  18.4
2023-06-11 19:14:07 #01111                99.7  5.0    ?  1514 284.8  18.3

2023-06-11 20:40:06 #01111                17.7  5.1    ?  1528 302.5   8.5
2023-06-11 20:43:22 #01111               101.6 62.9    ?   337 303.1   8.2
2023-06-11 20:46:35 #01111               187.7  5.1    ?  1499 303.8   7.9

2023-06-11 22:10:15 #01111               348.6  5.0    ?  1529 321.5   0.6
2023-06-11 22:12:36 #01111               302.8 11.8    ?  1078 322.0   0.4
2023-06-11 22:14:56 #01111               256.6  5.1    ?  1509 322.5   0.2

2023-06-12 05:30:44 #01111                72.8  5.0    ?  1534  59.5   9.5
2023-06-12 05:31:58 #01111                50.7  6.4    ?  1428  59.7   9.7
2023-06-12 05:33:13 #01111                28.4  5.0    ?  1539  60.0   9.8

2023-06-12 06:57:42 #01111               149.3  5.0    ?  1522  77.3  19.6
2023-06-12 07:00:55 #01111                70.0 46.7    ?   413  78.0  20.0
2023-06-12 07:04:09 #01111               351.7  5.1    ?  1534  78.6  20.3

2023-06-12 08:28:15 #01111               220.1  5.0    ?  1525  96.7  30.8
2023-06-12 08:30:45 #01111               269.9 12.9    ?  1033  97.3  31.1
2023-06-12 08:33:17 #01111               320.1  5.0    ?  1539  97.8  31.4

2023-06-12 19:16:56 #01111                59.3  5.0    ?  1521 285.4  18.0
2023-06-12 19:18:17 #01111                83.9  6.6    ?  1390 285.7  17.9
2023-06-12 19:19:38 #01111               108.6  5.0    ?  1509 285.9  17.7

2023-06-12 20:45:08 #01111                16.2  5.0    ?  1531 303.5   8.1
2023-06-12 20:48:25 #01111               101.6 74.8    ?   312 304.2   7.8
2023-06-12 20:51:39 #01111               191.5  5.0    ?  1502 304.8   7.4

2023-06-12 22:15:23 #01111               346.5  5.0    ?  1530 322.6   0.3
2023-06-12 22:17:36 #01111               303.9 10.7    ?  1136 323.1   0.1
2023-06-12 22:19:48 #01111               261.0  5.0    ?  1510 323.5   0.0

2023-06-13 05:35:27 #01111                79.2  5.0    ?  1534  60.4  10.1
2023-06-13 05:36:58 #01111                51.6  7.1    ?  1373  60.7  10.2
2023-06-13 05:38:28 #01111                24.5  5.0    ?  1538  61.0  10.4

2023-06-13 07:02:43 #01111               153.0  5.1    ?  1519  78.3  20.2
2023-06-13 07:05:57 #01111                71.3 54.8    ?   371  78.9  20.6
2023-06-13 07:09:13 #01111               350.2  5.0    ?  1536  79.6  21.0

2023-06-13 08:33:29 #01111               224.9  5.0    ?  1526  97.8  31.5
2023-06-13 08:35:51 #01111               271.3 11.5    ?  1102  98.3  31.8
2023-06-13 08:38:13 #01111               317.3  5.0    ?  1535  98.9  32.0

2023-06-13 19:21:44 #01111                54.4  5.0    ?  1519 286.4  17.5
2023-06-13 19:23:23 #01111                85.0  7.6    ?  1320 286.7  17.3
2023-06-13 19:25:02 #01111               115.8  5.0    ?  1505 287.0  17.1

2023-06-13 20:50:11 #01111                14.6  5.0    ?  1528 304.5   7.6
2023-06-13 20:53:28 #01111                98.8 88.1    ?   301 305.2   7.3
2023-06-13 20:56:41 #01111               195.3  5.1    ?  1495 305.9   7.0

2023-06-13 22:20:32 #01111               344.1  5.0    ?  1528 323.7   0.0
2023-06-13 22:22:36 #01111               304.9  9.6    ?  1193 324.1  -0.7
2023-06-13 22:24:39 #01111               265.6  5.0    ?  1511 324.6  -0.9

2023-06-14 05:40:14 #01111                84.5  5.0    ?  1530  61.3  10.6
2023-06-14 05:41:57 #01111                52.9  7.9    ?  1317  61.6  10.8
2023-06-14 05:43:40 #01111                21.3  5.0    ?  1536  62.0  11.0

2023-06-14 07:07:44 #01111               156.7  5.1    ?  1519  79.2  20.8
2023-06-14 07:10:59 #01111                72.9 64.8    ?   337  79.9  21.2
2023-06-14 07:14:16 #01111               348.7  5.1    ?  1533  80.6  21.6

2023-06-14 08:38:45 #01111               230.2  5.0    ?  1524  98.9  32.1
2023-06-14 08:40:56 #01111               272.2 10.2    ?  1171  99.4  32.4
2023-06-14 08:43:08 #01111               314.3  5.1    ?  1534  99.9  32.7

2023-06-14 19:26:35 #01111                50.4  5.0    ?  1519 287.3  17.0
2023-06-14 19:28:29 #01111                86.2  8.6    ?  1250 287.7  16.8
2023-06-14 19:30:22 #01111               122.1  5.0    ?  1502 288.1  16.6

2023-06-14 20:55:14 #01111                13.1  5.0    ?  1526 305.5   7.2
2023-06-14 20:58:31 #01111               282.8 78.5    ?   306 306.2   6.9
2023-06-14 21:01:43 #01111               199.0  5.0    ?  1494 306.9   6.6

2023-06-14 22:25:42 #01111               341.5  5.0    ?  1526 324.8  -0.9
2023-06-14 22:27:35 #01111               306.2  8.7    ?  1250 325.2  -1.0
2023-06-14 22:29:28 #01111               270.5  5.0    ?  1510 325.6  -1.1

2023-06-15 05:45:02 #01111                89.6  5.0    ?  1529  62.2  11.2
2023-06-15 05:46:56 #01111                54.1  8.8    ?  1261  62.6  11.4
2023-06-15 05:48:51 #01111                18.5  5.0    ?  1536  63.0  11.6

2023-06-15 07:12:45 #01111               160.4  5.0    ?  1523  80.2  21.5
2023-06-15 07:16:01 #01111                75.9 76.7    ?   314  80.9  21.9
2023-06-15 07:19:19 #01111               347.2  5.1    ?  1533  81.6  22.3

2023-06-15 08:44:02 #01111               235.7  5.0    ?  1525 100.0  32.8
2023-06-15 08:46:02 #01111               273.5  9.0    ?  1241 100.5  33.0
2023-06-15 08:48:02 #01111               311.0  5.0    ?  1535 101.0  33.3

2023-06-15 19:31:28 #01111                46.9  5.0    ?  1519 288.3  16.5
2023-06-15 19:33:34 #01111                87.1  9.7    ?  1180 288.8  16.2
2023-06-15 19:35:39 #01111               127.7  5.0    ?  1497 289.2  16.0

2023-06-15 21:00:17 #01111                11.5  5.0    ?  1524 306.6   6.8
2023-06-15 21:03:33 #01111               286.1 66.2    ?   326 307.2   6.4
2023-06-15 21:06:44 #01111               202.8  5.1    ?  1491 307.9   6.1

2023-06-15 22:30:53 #01111               338.5  5.0    ?  1525 325.9  -1.2
2023-06-15 22:32:35 #01111               307.1  7.8    ?  1307 326.2  -1.3
2023-06-15 22:34:15 #01111               275.9  5.0    ?  1508 326.6  -1.4

2023-06-16 05:49:51 #01111                94.5  5.0    ?  1531  63.1  11.7
2023-06-16 05:51:56 #01111                55.0  9.7    ?  1204  63.5  11.9
2023-06-16 05:54:00 #01111                16.0  5.0    ?  1534  64.0  12.2

2023-06-16 07:17:47 #01111               164.1  5.0    ?  1523  81.2  22.1
2023-06-16 07:21:04 #01111                 9.6 89.5    ?   306  81.9  22.5
2023-06-16 07:24:22 #01111               345.6  5.0    ?  1536  82.6  22.9

2023-06-16 08:49:21 #01111               241.7  5.0    ?  1528 101.2  33.5
2023-06-16 08:51:07 #01111               274.4  7.9    ?  1311 101.6  33.7
2023-06-16 08:52:53 #01111               307.1  5.0    ?  1532 102.0  33.9

2023-06-16 19:36:23 #01111                43.9  5.0    ?  1516 289.3  16.0
2023-06-16 19:38:39 #01111                88.2 10.9    ?  1111 289.8  15.7
2023-06-16 19:40:54 #01111               133.0  5.1    ?  1493 290.2  15.4

2023-06-16 21:05:20 #01111                10.0  5.0    ?  1524 307.6   6.3
2023-06-16 21:08:34 #01111               289.3 55.7    ?   358 308.3   6.0
2023-06-16 21:11:45 #01111               206.5  5.0    ?  1493 308.9   5.7

2023-06-16 22:36:06 #01111               335.0  5.0    ?  1522 327.0  -1.5
2023-06-16 22:37:34 #01111               308.2  7.0    ?  1362 327.3  -1.6
2023-06-16 22:39:00 #01111               281.7  5.0    ?  1508 327.6  -1.7

2023-06-17 05:54:42 #01111                99.0  5.0    ?  1528  64.0  12.3
2023-06-17 05:56:55 #01111                56.3 10.7    ?  1146  64.5  12.5
2023-06-17 05:59:08 #01111                13.8  5.1    ?  1532  64.9  12.7

2023-06-17 07:22:50 #01111               167.8  5.1    ?  1519  82.2  22.7
2023-06-17 07:26:06 #01111               255.8 77.0    ?   313  82.9  23.1
2023-06-17 07:29:24 #01111               344.1  5.0    ?  1534  83.5  23.5

2023-06-17 08:54:44 #01111               248.6  5.0    ?  1527 102.4  34.1
2023-06-17 08:56:13 #01111               275.7  6.9    ?  1380 102.7  34.3
2023-06-17 08:57:42 #01111               302.6  5.0    ?  1534 103.1  34.5

2023-06-17 19:41:19 #01111                41.2  5.0    ?  1514 290.3  15.4
2023-06-17 19:43:44 #01111                89.4 12.3    ?  1041 290.8  15.2
2023-06-17 19:46:08 #01111               138.1  5.0    ?  1493 291.3  14.9

2023-06-17 21:10:24 #01111                 8.5  5.1    ?  1517 308.6   5.9
2023-06-17 21:13:36 #01111               289.4 47.1    ?   400 309.3   5.6
2023-06-17 21:16:45 #01111               210.2  5.0    ?  1493 309.9   5.3

2023-06-17 22:41:22 #01111               330.6  5.0    ?  1519 328.1  -1.8
2023-06-17 22:42:32 #01111               309.5  6.2    ?  1417 328.3  -1.9
2023-06-17 22:43:42 #01111               288.3  5.0    ?  1509 328.6  -2.0

2023-06-18 05:59:33 #01111               103.4  5.0    ?  1529  65.0  12.8
2023-06-18 06:01:54 #01111                57.6 11.8    ?  1088  65.5  13.1
2023-06-18 06:04:16 #01111                11.6  5.0    ?  1534  65.9  13.3

2023-06-18 07:27:53 #01111               171.6  5.1    ?  1519  83.2  23.3
2023-06-18 07:31:08 #01111               255.6 64.9    ?   335  83.9  23.7
2023-06-18 07:34:26 #01111               342.5  5.0    ?  1535  84.5  24.1

2023-06-18 09:00:13 #01111               257.2  5.0    ?  1527 103.6  34.8
2023-06-18 09:01:18 #01111               276.6  6.0    ?  1450 103.9  34.9
2023-06-18 09:02:24 #01111               296.2  5.0    ?  1531 104.1  35.0

2023-06-18 19:46:15 #01111                38.5  5.0    ?  1516 291.3  14.9
2023-06-18 19:48:49 #01111                90.7 13.8    ?   972 291.8  14.6
2023-06-18 19:51:20 #01111               142.8  5.0    ?  1490 292.3  14.3

2023-06-18 21:15:27 #01111                 6.9  5.0    ?  1518 309.6   5.4
2023-06-18 21:18:37 #01111               290.7 40.3    ?   447 310.3   5.1
2023-06-18 21:21:44 #01111               214.0  5.0    ?  1491 310.9   4.9

2023-06-18 22:46:44 #01111               324.5  5.0    ?  1516 329.2  -2.1
2023-06-18 22:47:31 #01111               310.5  5.5    ?  1471 329.4  -2.2
2023-06-18 22:48:17 #01111               296.7  5.0    ?  1510 329.6  -2.2

2023-06-19 06:04:26 #01111               107.5  5.0    ?  1525  65.9  13.3
2023-06-19 06:06:54 #01111                58.5 13.0    ?  1030  66.4  13.6
2023-06-19 06:09:22 #01111                 9.7  5.1    ?  1529  66.9  13.9

2023-06-19 07:32:56 #01111               175.3  5.0    ?  1522  84.2  23.9
2023-06-19 07:36:11 #01111               258.3 54.6    ?   370  84.9  24.4
2023-06-19 07:39:27 #01111               340.9  5.0    ?  1531  85.6  24.8

2023-06-19 19:51:13 #01111                36.3  5.1    ?  1510 292.2  14.4
2023-06-19 19:53:53 #01111                91.8 15.4    ?   904 292.8  14.1
2023-06-19 19:56:31 #01111               147.4  5.0    ?  1489 293.3  13.8

2023-06-19 21:20:31 #01111                 5.3  5.1    ?  1512 310.7   5.0
2023-06-19 21:23:38 #01111               291.7 34.8    ?   499 311.3   4.7
2023-06-19 21:26:42 #01111               217.8  5.0    ?  1486 312.0   4.4

2023-06-20 06:09:19 #01111               111.7  5.0    ?  1524  66.9  13.9
2023-06-20 06:11:53 #01111                59.9 14.3    ?   971  67.4  14.2
2023-06-20 06:14:28 #01111                 7.8  5.1    ?  1527  67.9  14.5

2023-06-20 07:38:00 #01111               179.1  5.0    ?  1521  85.2  24.6
2023-06-20 07:41:13 #01111               258.5 46.2    ?   414  85.9  25.0
2023-06-20 07:44:28 #01111               339.3  5.0    ?  1530  86.6  25.4

2023-06-20 19:56:11 #01111                34.1  5.1    ?  1508 293.2  13.8
2023-06-20 19:58:57 #01111                93.0 17.3    ?   836 293.8  13.5
2023-06-20 20:01:40 #01111               151.8  5.1    ?  1482 294.3  13.2

2023-06-20 21:25:34 #01111                 3.8  5.0    ?  1515 311.7   4.6
2023-06-20 21:28:39 #01111               292.4 30.4    ?   554 312.3   4.3
2023-06-20 21:31:40 #01111               221.5  5.0    ?  1487 313.0   4.0

2023-06-21 06:14:13 #01111               115.6  5.1    ?  1521  67.8  14.4
2023-06-21 06:16:53 #01111                60.8 15.8    ?   911  68.4  14.7
2023-06-21 06:19:34 #01111                 5.9  5.0    ?  1529  68.9  15.0

2023-06-21 07:43:05 #01111               182.9  5.0    ?  1517  86.2  25.2
2023-06-21 07:46:16 #01111               260.2 39.4    ?   464  86.9  25.6
2023-06-21 07:49:28 #01111               337.6  5.1    ?  1525  87.6  26.0

2023-06-21 20:01:09 #01111                32.0  5.0    ?  1508 294.2  13.3
2023-06-21 20:04:00 #01111                93.8 19.5    ?   769 294.8  13.0
2023-06-21 20:06:49 #01111               156.1  5.0    ?  1483 295.3  12.7

2023-06-21 21:30:38 #01111                 2.2  5.0    ?  1512 312.7   4.1
2023-06-21 21:33:39 #01111               293.8 26.7    ?   610 313.3   3.9
2023-06-21 21:36:37 #01111               225.4  5.0    ?  1486 314.0   3.6

2023-06-22 06:19:07 #01111               119.6  5.0    ?  1522  68.8  15.0
2023-06-22 06:21:53 #01111                61.7 17.4    ?   852  69.3  15.3
2023-06-22 06:24:39 #01111                 4.2  5.0    ?  1528  69.9  15.6

2023-06-22 07:48:10 #01111               186.8  5.0    ?  1517  87.3  25.8
2023-06-22 07:51:19 #01111               261.7 33.9    ?   520  87.9  26.2
2023-06-22 07:54:28 #01111               335.9  5.1    ?  1523  88.6  26.6

2023-06-22 20:06:08 #01111                30.0  5.1    ?  1504 295.2  12.8
2023-06-22 20:09:04 #01111                95.4 22.0    ?   704 295.8  12.4
2023-06-22 20:11:56 #01111               160.3  5.1    ?  1477 296.3  12.1

2023-06-22 21:35:42 #01111                 0.6  5.0    ?  1510 313.7   3.7
2023-06-22 21:38:39 #01111               295.0 23.6    ?   668 314.3   3.4
2023-06-22 21:41:33 #01111               229.2  5.0    ?  1483 315.0   3.2

2023-06-23 06:24:02 #01111               123.5  5.0    ?  1519  69.7  15.5
2023-06-23 06:26:52 #01111                63.2 19.3    ?   793  70.3  15.8
2023-06-23 06:29:43 #01111                 2.6  5.0    ?  1524  70.9  16.2

2023-06-23 07:53:16 #01111               190.8  5.1    ?  1514  88.3  26.4
2023-06-23 07:56:21 #01111               262.1 29.5    ?   579  89.0  26.8
2023-06-23 07:59:28 #01111               334.2  5.0    ?  1524  89.6  27.2

2023-06-23 20:11:07 #01111                28.1  5.1    ?  1503 296.1  12.2
2023-06-23 20:14:06 #01111                95.9 24.9    ?   639 296.7  11.9
2023-06-23 20:17:03 #01111               164.4  5.0    ?  1477 297.3  11.6

2023-06-23 21:40:46 #01111               358.9  5.0    ?  1509 314.7   3.3
2023-06-23 21:43:39 #01111               295.9 21.1    ?   727 315.3   3.0
2023-06-23 21:46:28 #01111               233.2  5.1    ?  1479 315.9   2.8

2023-06-24 06:28:58 #01111               127.2  5.1    ?  1514  70.7  16.0
2023-06-24 06:31:52 #01111                64.1 21.5    ?   733  71.3  16.4
2023-06-24 06:34:47 #01111                 1.0  5.0    ?  1523  71.9  16.7

2023-06-24 07:58:22 #01111               194.8  5.0    ?  1515  89.4  27.0
2023-06-24 08:01:24 #01111               263.5 25.8    ?   640  90.0  27.4
2023-06-24 08:04:27 #01111               332.3  5.0    ?  1522  90.7  27.7

2023-06-24 20:16:06 #01111                26.2  5.0    ?  1503 297.1  11.7
2023-06-24 20:19:09 #01111                97.3 28.4    ?   577 297.7  11.3
2023-06-24 20:22:09 #01111               168.5  5.0    ?  1477 298.3  11.0

2023-06-24 21:45:51 #01111               357.1  5.1    ?  1503 315.8   2.8
2023-06-24 21:48:38 #01111               297.3 18.8    ?   786 316.4   2.6
2023-06-24 21:51:23 #01111               237.1  5.0    ?  1480 316.9   2.4

2023-06-25 06:33:53 #01111               131.1  5.0    ?  1519  71.7  16.6
2023-06-25 06:36:52 #01111                65.0 24.0    ?   674  72.3  16.9
2023-06-25 06:39:50 #01111               359.4  5.1    ?  1517  72.9  17.3

2023-06-25 08:03:29 #01111               198.8  5.0    ?  1514  90.4  27.6
2023-06-25 08:06:27 #01111               264.7 22.7    ?   704  91.1  27.9
2023-06-25 08:09:25 #01111               330.3  5.1    ?  1517  91.7  28.3

2023-06-25 20:21:06 #01111                24.5  5.1    ?  1498 298.1  11.1
2023-06-25 20:24:11 #01111                98.1 32.7    ?   516 298.7  10.8
2023-06-25 20:27:14 #01111               172.5  5.0    ?  1476 299.3  10.5

2023-06-25 21:50:55 #01111               355.4  5.0    ?  1504 316.8   2.4
2023-06-25 21:53:37 #01111               298.5 16.9    ?   845 317.4   2.2
2023-06-25 21:56:17 #01111               241.1  5.0    ?  1479 317.9   2.0

2023-06-26 06:38:50 #01111               134.8  5.0    ?  1513  72.7  17.1
2023-06-26 06:41:51 #01111                66.7 27.0    ?   616  73.3  17.5
2023-06-26 06:44:54 #01111               357.8  5.0    ?  1521  73.9  17.8

2023-06-26 08:08:37 #01111               203.1  5.1    ?  1510  91.5  28.2
2023-06-26 08:11:30 #01111               265.9 20.0    ?   769  92.2  28.5
2023-06-26 08:14:23 #01111               328.3  5.1    ?  1516  92.8  28.9

2023-06-26 20:26:05 #01111                22.7  5.0    ?  1501 299.0  10.6
2023-06-26 20:29:13 #01111                99.2 38.0    ?   459 299.7  10.2
2023-06-26 20:32:18 #01111               176.4  5.0    ?  1473 300.3   9.9

2023-06-26 21:56:00 #01111               353.5  5.0    ?  1501 317.8   2.0
2023-06-26 21:58:36 #01111               299.5 15.2    ?   904 318.4   1.8
2023-06-26 22:01:10 #01111               245.3  5.0    ?  1478 318.9   1.6

2023-06-27 06:43:47 #01111               138.5  5.1    ?  1511  73.7  17.7
2023-06-27 06:46:51 #01111                67.7 30.6    ?   559  74.3  18.0
2023-06-27 06:49:56 #01111               356.3  5.1    ?  1515  74.9  18.4

2023-06-27 08:13:45 #01111               207.3  5.0    ?  1511  92.6  28.7
2023-06-27 08:16:33 #01111               267.0 17.8    ?   835  93.2  29.1
2023-06-27 08:19:21 #01111               326.3  5.0    ?  1519  93.9  29.4

2023-06-27 20:31:05 #01111                21.0  5.0    ?  1499 300.0  10.0
2023-06-27 20:34:15 #01111               100.8 44.6    ?   407 300.6   9.7
2023-06-27 20:37:21 #01111               180.3  5.0    ?  1469 301.3   9.4

2023-06-27 22:01:05 #01111               351.5  5.0    ?  1500 318.8   1.6
2023-06-27 22:03:35 #01111               300.4 13.7    ?   963 319.4   1.4
2023-06-27 22:06:02 #01111               249.5  5.1    ?  1476 319.9   1.2

2023-06-28 06:48:44 #01111               142.3  5.0    ?  1512  74.7  18.2
2023-06-28 06:51:51 #01111                68.6 34.9    ?   504  75.3  18.6
2023-06-28 06:54:59 #01111               354.7  5.0    ?  1517  75.9  18.9

2023-06-28 08:18:54 #01111               211.7  5.0    ?  1511  93.7  29.3
2023-06-28 08:21:35 #01111               267.6 15.8    ?   902  94.3  29.7
2023-06-28 08:24:17 #01111               323.9  5.1    ?  1513  94.9  30.0

2023-06-28 20:36:05 #01111                19.3  5.0    ?  1498 301.0   9.5
2023-06-28 20:39:16 #01111               101.3 52.9    ?   361 301.6   9.1
2023-06-28 20:42:24 #01111               184.2  5.0    ?  1471 302.3   8.8

2023-06-28 22:06:11 #01111               349.4  5.1    ?  1495 319.9   1.2
2023-06-28 22:08:33 #01111               301.6 12.4    ?  1022 320.4   1.0
2023-06-28 22:10:54 #01111               253.7  5.0    ?  1479 320.9   0.9

2023-06-29 05:27:10 #01111                63.7  5.0    ?  1516  57.9   8.9
2023-06-29 05:27:57 #01111                49.7  5.5    ?  1474  58.1   9.0
2023-06-29 05:28:43 #01111                35.9  5.0    ?  1516  58.2   9.0

2023-06-29 06:53:42 #01111               145.9  5.0    ?  1508  75.7  18.7
2023-06-29 06:56:51 #01111                69.6 40.2    ?   452  76.3  19.1
2023-06-29 07:00:00 #01111               353.2  5.1    ?  1509  77.0  19.5

2023-06-29 08:24:04 #01111               216.3  5.0    ?  1511  94.9  29.9
2023-06-29 08:26:38 #01111               268.7 14.0    ?   970  95.4  30.2
2023-06-29 08:29:13 #01111               321.5  5.0    ?  1513  96.0  30.5

2023-06-29 19:13:24 #01111                70.1  5.0    ?  1487 283.9  18.9
2023-06-29 19:14:06 #01111                82.9  5.4    ?  1450 284.1  18.8
2023-06-29 19:14:48 #01111                95.7  5.0    ?  1480 284.2  18.8

2023-06-29 20:41:06 #01111                17.7  5.1    ?  1491 301.9   8.9
2023-06-29 20:44:17 #01111               102.0 63.2    ?   324 302.6   8.6
2023-06-29 20:47:25 #01111               188.0  5.1    ?  1464 303.2   8.3

2023-06-29 22:11:17 #01111               347.2  5.1    ?  1493 320.9   0.8
2023-06-29 22:13:31 #01111               302.8 11.2    ?  1080 321.4   0.7
2023-06-29 22:15:44 #01111               258.2  5.0    ?  1477 321.9   0.5

2023-06-30 05:31:45 #01111                71.7  5.0    ?  1513  58.8   9.3
2023-06-30 05:32:54 #01111                50.8  6.2    ?  1420  59.1   9.4
2023-06-30 05:34:02 #01111                30.3  5.0    ?  1513  59.3   9.5

2023-06-30 06:58:40 #01111               149.6  5.0    ?  1509  76.7  19.3
2023-06-30 07:01:51 #01111                70.6 46.8    ?   403  77.3  19.6
2023-06-30 07:05:02 #01111               351.7  5.0    ?  1510  78.0  20.0

2023-06-30 08:29:16 #01111               221.2  5.1    ?  1505  96.0  30.5
2023-06-30 08:31:41 #01111               269.8 12.4    ?  1038  96.6  30.8
2023-06-30 08:34:08 #01111               319.0  5.0    ?  1512  97.1  31.1

2023-06-30 19:17:58 #01111                61.7  5.0    ?  1487 284.8  18.3
2023-06-30 19:19:10 #01111                84.0  6.3    ?  1381 285.1  18.2
2023-06-30 19:20:22 #01111               106.4  5.0    ?  1476 285.3  18.1

2023-06-30 20:46:06 #01111                16.1  5.0    ?  1492 302.9   8.4
2023-06-30 20:49:18 #01111               104.0 75.5    ?   300 303.6   8.0
2023-06-30 20:52:27 #01111               191.8  5.0    ?  1469 304.2   7.7

2023-06-30 22:16:23 #01111               344.9  5.0    ?  1494 321.9   0.4
2023-06-30 22:18:29 #01111               303.8 10.1    ?  1137 322.4   0.3
2023-06-30 22:20:33 #01111               262.8  5.0    ?  1476 322.9   0.2

2023-07-01 05:36:26 #01111                78.0  5.0    ?  1510  59.8   9.7
2023-07-01 05:37:51 #01111                52.0  6.9    ?  1365  60.1   9.9
2023-07-01 05:39:15 #01111                26.2  5.0    ?  1509  60.4  10.0

2023-07-01 07:03:39 #01111               153.3  5.0    ?  1505  77.7  19.8
2023-07-01 07:06:51 #01111                71.5 55.0    ?   361  78.4  20.2
2023-07-01 07:10:03 #01111               350.2  5.1    ?  1506  79.0  20.6

2023-07-01 08:34:28 #01111               226.2  5.0    ?  1506  97.2  31.0
2023-07-01 08:36:45 #01111               271.3 11.0    ?  1106  97.7  31.3
2023-07-01 08:39:01 #01111               316.0  5.1    ?  1507  98.2  31.6

2023-07-01 19:22:42 #01111                56.2  5.0    ?  1486 285.7  17.7
2023-07-01 19:24:14 #01111                85.2  7.2    ?  1311 286.0  17.6
2023-07-01 19:25:45 #01111               114.1  5.0    ?  1472 286.3  17.4

2023-07-01 20:51:06 #01111                14.5  5.0    ?  1494 303.9   7.8
2023-07-01 20:54:18 #01111                69.0 88.9    ?   290 304.5   7.5
2023-07-01 20:57:27 #01111               195.6  5.0    ?  1465 305.2   7.2

2023-07-01 22:21:31 #01111               342.1  5.1    ?  1489 323.0   0.1
2023-07-01 22:23:26 #01111               305.1  9.1    ?  1195 323.4  -0.6
2023-07-01 22:25:21 #01111               267.6  5.0    ?  1476 323.8  -0.8

2023-07-02 05:41:10 #01111                83.6  5.0    ?  1508  60.8  10.1
2023-07-02 05:42:48 #01111                53.2  7.6    ?  1310  61.1  10.3
2023-07-02 05:44:26 #01111                22.7  5.0    ?  1508  61.4  10.5

2023-07-02 07:08:38 #01111               157.0  5.0    ?  1504  78.7  20.3
2023-07-02 07:11:51 #01111                72.5 65.2    ?   327  79.4  20.7
2023-07-02 07:15:04 #01111               348.6  5.0    ?  1505  80.1  21.1

2023-07-02 08:39:42 #01111               231.5  5.0    ?  1504  98.4  31.6
2023-07-02 08:41:48 #01111               272.3  9.8    ?  1175  98.9  31.9
2023-07-02 08:43:54 #01111               312.9  5.0    ?  1508  99.3  32.1

2023-07-02 19:27:30 #01111                51.9  5.0    ?  1485 286.6  17.1
2023-07-02 19:29:17 #01111                86.1  8.2    ?  1242 287.0  16.9
2023-07-02 19:31:04 #01111               120.8  5.0    ?  1470 287.3  16.7

2023-07-02 20:56:07 #01111                12.9  5.0    ?  1490 304.8   7.3
2023-07-02 20:59:19 #01111               283.0 77.1    ?   297 305.5   6.9
2023-07-02 21:02:27 #01111               199.3  5.0    ?  1466 306.1   6.6

2023-07-02 22:26:39 #01111               339.3  5.0    ?  1489 324.1  -0.9
2023-07-02 22:28:23 #01111               306.3  8.2    ?  1251 324.4  -1.0
2023-07-02 22:30:08 #01111               272.6  5.0    ?  1479 324.8  -1.2

2023-07-03 05:45:56 #01111                88.7  5.0    ?  1505  61.7  10.6
2023-07-03 05:47:45 #01111                54.3  8.4    ?  1254  62.1  10.8
2023-07-03 05:49:34 #01111                19.9  5.0    ?  1504  62.5  11.0

2023-07-03 07:13:38 #01111               160.7  5.1    ?  1499  79.8  20.8
2023-07-03 07:16:51 #01111                73.6 77.3    ?   305  80.5  21.2
2023-07-03 07:20:05 #01111               347.1  5.0    ?  1507  81.1  21.6

2023-07-03 08:44:58 #01111               237.4  5.0    ?  1502  99.6  32.2
2023-07-03 08:46:51 #01111               273.3  8.6    ?  1244 100.0  32.4
2023-07-03 08:48:44 #01111               309.2  5.0    ?  1504 100.5  32.6

2023-07-03 19:32:20 #01111                48.1  5.0    ?  1486 287.5  16.5
2023-07-03 19:34:21 #01111                87.6  9.3    ?  1172 287.9  16.3
2023-07-03 19:36:20 #01111               126.8  5.0    ?  1470 288.3  16.0

2023-07-03 21:01:08 #01111                11.3  5.1    ?  1486 305.8   6.7
2023-07-03 21:04:18 #01111               288.4 64.7    ?   319 306.4   6.4
2023-07-03 21:07:26 #01111               203.1  5.0    ?  1465 307.1   6.1

2023-07-03 22:31:49 #01111               335.9  5.0    ?  1486 325.1  -1.4
2023-07-03 22:33:20 #01111               307.3  7.3    ?  1307 325.4  -1.5
2023-07-03 22:34:52 #01111               278.2  5.0    ?  1478 325.8  -1.6

2023-07-04 05:50:43 #01111                93.6  5.0    ?  1504  62.7  11.0
2023-07-04 05:52:42 #01111                55.5  9.3    ?  1197  63.1  11.2
2023-07-04 05:54:41 #01111                17.3  5.1    ?  1501  63.5  11.4

2023-07-04 07:18:38 #01111               164.4  5.0    ?  1498  80.8  21.4
2023-07-04 07:21:51 #01111               249.6 89.3    ?   297  81.5  21.8
2023-07-04 07:25:05 #01111               345.5  5.0    ?  1504  82.2  22.2

2023-07-04 08:50:16 #01111               243.7  5.0    ?  1502 100.8  32.7
2023-07-04 08:51:54 #01111               274.3  7.5    ?  1313 101.2  32.9
2023-07-04 08:53:32 #01111               304.9  5.0    ?  1503 101.6  33.1

2023-07-04 19:37:12 #01111                44.9  5.0    ?  1485 288.4  15.9
2023-07-04 19:39:23 #01111                88.4 10.5    ?  1103 288.9  15.6
2023-07-04 19:41:33 #01111               132.2  5.0    ?  1466 289.3  15.4

2023-07-04 21:06:09 #01111                 9.8  5.1    ?  1484 306.8   6.1
2023-07-04 21:09:18 #01111               288.1 54.3    ?   352 307.4   5.8
2023-07-04 21:12:24 #01111               206.8  5.1    ?  1462 308.1   5.5

2023-07-04 22:37:00 #01111               332.2  5.0    ?  1488 326.2  -1.8
2023-07-04 22:38:17 #01111               308.4  6.5    ?  1362 326.5  -1.9
2023-07-04 22:39:34 #01111               284.3  5.0    ?  1479 326.8  -2.0

2023-07-05 05:55:32 #01111                98.1  5.0    ?  1499  63.7  11.4
2023-07-05 05:57:40 #01111                56.3 10.3    ?  1140  64.2  11.7
2023-07-05 05:59:48 #01111                14.8  5.0    ?  1503  64.6  11.9

2023-07-05 07:23:39 #01111               168.1  5.1    ?  1492  81.9  21.9
2023-07-05 07:26:51 #01111               255.0 75.9    ?   305  82.6  22.3
2023-07-05 07:30:04 #01111               343.9  5.1    ?  1497  83.2  22.7

2023-07-05 08:55:39 #01111               251.4  5.0    ?  1500 102.1  33.3
2023-07-05 08:56:57 #01111               275.3  6.5    ?  1382 102.4  33.5
2023-07-05 08:58:16 #01111               299.6  5.0    ?  1501 102.7  33.6

2023-07-05 19:42:06 #01111                42.2  5.1    ?  1480 289.4  15.2
2023-07-05 19:44:26 #01111                89.7 11.9    ?  1035 289.8  15.0
2023-07-05 19:46:45 #01111               137.4  5.0    ?  1467 290.3  14.7

2023-07-05 21:11:10 #01111                 8.2  5.1    ?  1483 307.7   5.6
2023-07-05 21:14:17 #01111               289.6 45.9    ?   395 308.4   5.3
2023-07-05 21:17:22 #01111               210.6  5.0    ?  1464 309.0   5.0

2023-07-05 22:42:16 #01111               327.1  5.0    ?  1486 327.3  -2.2
2023-07-05 22:43:14 #01111               309.3  5.8    ?  1416 327.5  -2.3
2023-07-05 22:44:11 #01111               291.7  5.0    ?  1480 327.7  -2.4

2023-07-06 06:00:21 #01111               102.6  5.0    ?  1498  64.7  11.9
2023-07-06 06:02:37 #01111                57.5 11.3    ?  1082  65.2  12.1
2023-07-06 06:04:53 #01111                12.6  5.0    ?  1500  65.7  12.4

2023-07-06 07:28:40 #01111               171.9  5.1    ?  1490  83.0  22.4
2023-07-06 07:31:51 #01111               256.1 63.6    ?   328  83.6  22.8
2023-07-06 07:35:04 #01111               342.3  5.0    ?  1500  84.3  23.2

2023-07-06 09:01:10 #01111               261.2  5.0    ?  1499 103.4  33.9
2023-07-06 09:02:01 #01111               276.6  5.6    ?  1451 103.6  34.0
2023-07-06 09:02:52 #01111               292.1  5.0    ?  1500 103.8  34.1

2023-07-06 19:47:00 #01111                39.5  5.1    ?  1480 290.3  14.6
2023-07-06 19:49:28 #01111                90.8 13.3    ?   966 290.8  14.3
2023-07-06 19:51:55 #01111               142.2  5.0    ?  1465 291.3  14.0

2023-07-06 21:16:11 #01111                 6.6  5.1    ?  1482 308.7   5.0
2023-07-06 21:19:16 #01111               290.6 39.2    ?   443 309.4   4.7
2023-07-06 21:22:19 #01111               214.4  5.0    ?  1464 310.0   4.5

2023-07-07 06:05:11 #01111               106.9  5.0    ?  1497  65.7  12.3
2023-07-07 06:07:34 #01111                58.8 12.5    ?  1023  66.2  12.6
2023-07-07 06:09:57 #01111                10.6  5.0    ?  1496  66.7  12.9

2023-07-07 07:33:41 #01111               175.7  5.0    ?  1492  84.0  22.9
2023-07-07 07:36:52 #01111               259.1 53.3    ?   364  84.7  23.3
2023-07-07 07:40:03 #01111               340.7  5.0    ?  1498  85.4  23.7

2023-07-07 19:51:54 #01111                36.9  5.0    ?  1483 291.2  14.0
2023-07-07 19:54:30 #01111                91.9 15.0    ?   899 291.7  13.7
2023-07-07 19:57:04 #01111               146.9  5.0    ?  1465 292.3  13.4

2023-07-07 21:21:12 #01111                 5.0  5.0    ?  1482 309.7   4.5
2023-07-07 21:24:15 #01111               291.3 33.9    ?   496 310.3   4.2
2023-07-07 21:27:15 #01111               218.2  5.1    ?  1462 311.0   3.9

2023-07-08 06:10:02 #01111               111.0  5.0    ?  1494  66.8  12.8
2023-07-08 06:12:32 #01111                59.5 13.8    ?   965  67.3  13.0
2023-07-08 06:15:01 #01111                 8.7  5.0    ?  1495  67.8  13.3

2023-07-08 07:38:43 #01111               179.5  5.0    ?  1489  85.1  23.4
2023-07-08 07:41:52 #01111               259.6 45.0    ?   408  85.8  23.8
2023-07-08 07:45:01 #01111               339.0  5.1    ?  1493  86.5  24.2

2023-07-08 19:56:50 #01111                34.7  5.0    ?  1479 292.1  13.3
2023-07-08 19:59:32 #01111                93.3 16.9    ?   831 292.7  13.0
2023-07-08 20:02:11 #01111               151.3  5.1    ?  1460 293.2  12.7

2023-07-08 21:26:13 #01111                 3.4  5.0    ?  1484 310.7   3.9
2023-07-08 21:29:13 #01111               292.8 29.6    ?   551 311.3   3.7
2023-07-08 21:32:11 #01111               221.9  5.0    ?  1465 311.9   3.4

2023-07-09 06:14:54 #01111               114.9  5.1    ?  1489  67.8  13.2
2023-07-09 06:17:29 #01111                60.8 15.2    ?   905  68.3  13.5
2023-07-09 06:20:04 #01111                 6.8  5.0    ?  1492  68.8  13.8

2023-07-09 07:43:46 #01111               183.4  5.1    ?  1484  86.3  23.9
2023-07-09 07:46:52 #01111               260.2 38.3    ?   459  86.9  24.3
2023-07-09 07:49:59 #01111               337.2  5.1    ?  1490  87.6  24.7

2023-07-09 20:01:46 #01111                32.6  5.1    ?  1477 293.0  12.7
2023-07-09 20:04:33 #01111                94.3 19.0    ?   765 293.6  12.3
2023-07-09 20:07:18 #01111               155.8  5.0    ?  1462 294.2  12.0

2023-07-09 21:31:15 #01111                 1.7  5.1    ?  1479 311.6   3.4
2023-07-09 21:34:11 #01111               294.0 26.0    ?   607 312.3   3.1
2023-07-09 21:37:06 #01111               225.7  5.0    ?  1466 312.9   2.9

2023-07-10 06:19:46 #01111               118.9  5.0    ?  1487  68.8  13.6
2023-07-10 06:22:26 #01111                62.1 16.8    ?   846  69.4  14.0
2023-07-10 06:25:07 #01111                 5.0  5.0    ?  1492  69.9  14.3

2023-07-10 07:48:49 #01111               187.3  5.1    ?  1482  87.4  24.4
2023-07-10 07:51:52 #01111               261.0 32.9    ?   515  88.0  24.8
2023-07-10 07:54:57 #01111               335.5  5.0    ?  1491  88.7  25.2

2023-07-10 20:06:42 #01111                30.5  5.1    ?  1477 294.0  12.0
2023-07-10 20:09:34 #01111                95.4 21.5    ?   700 294.5  11.7
2023-07-10 20:12:24 #01111               160.1  5.0    ?  1464 295.1  11.4

2023-07-10 21:36:16 #01111                 0.1  5.0    ?  1483 312.6   2.9
2023-07-10 21:39:09 #01111               294.9 23.1    ?   665 313.2   2.6
2023-07-10 21:42:00 #01111               229.6  5.0    ?  1464 313.8   2.4

2023-07-11 06:24:39 #01111               122.8  5.1    ?  1483  69.9  14.1
2023-07-11 06:27:24 #01111                62.8 18.7    ?   787  70.4  14.4
2023-07-11 06:30:09 #01111                 3.3  5.0    ?  1489  71.0  14.7

2023-07-11 07:53:52 #01111               191.3  5.0    ?  1484  88.5  25.0
2023-07-11 07:56:53 #01111               262.6 28.5    ?   574  89.1  25.3
2023-07-11 07:59:54 #01111               333.6  5.1    ?  1488  89.8  25.7

2023-07-11 20:11:38 #01111                28.4  5.0    ?  1481 294.9  11.4
2023-07-11 20:14:34 #01111                96.1 24.4    ?   636 295.5  11.0
2023-07-11 20:17:28 #01111               164.1  5.1    ?  1459 296.1  10.7

2023-07-11 21:41:18 #01111               358.4  5.0    ?  1480 313.6   2.3
2023-07-11 21:44:07 #01111               295.7 20.6    ?   724 314.2   2.1
2023-07-11 21:46:54 #01111               233.4  5.0    ?  1468 314.8   1.8

2023-07-12 06:29:32 #01111               126.7  5.1    ?  1482  70.9  14.5
2023-07-12 06:32:21 #01111                64.2 20.8    ?   728  71.5  14.9
2023-07-12 06:35:11 #01111                 1.6  5.0    ?  1489  72.1  15.2

2023-07-12 07:58:56 #01111               195.3  5.0    ?  1483  89.6  25.5
2023-07-12 08:01:53 #01111               263.4 24.9    ?   636  90.3  25.8
2023-07-12 08:04:51 #01111               331.7  5.0    ?  1488  90.9  26.2

2023-07-12 20:16:35 #01111                26.6  5.0    ?  1479 295.8  10.7
2023-07-12 20:19:35 #01111                97.7 27.9    ?   574 296.4  10.4
2023-07-12 20:22:32 #01111               168.2  5.1    ?  1460 297.0  10.0

2023-07-12 21:46:20 #01111               356.6  5.0    ?  1480 314.6   1.8
2023-07-12 21:49:04 #01111               297.0 18.4    ?   783 315.2   1.6
2023-07-12 21:51:46 #01111               237.5  5.1    ?  1464 315.8   1.4

2023-07-13 06:34:26 #01111               130.5  5.1    ?  1478  72.0  15.0
2023-07-13 06:37:19 #01111                64.9 23.2    ?   669  72.6  15.3
2023-07-13 06:40:12 #01111               359.9  5.1    ?  1485  73.2  15.7

2023-07-13 08:04:01 #01111               199.5  5.0    ?  1480  90.8  26.0
2023-07-13 08:06:54 #01111               264.8 21.9    ?   699  91.4  26.3
2023-07-13 08:09:47 #01111               329.7  5.0    ?  1485  92.1  26.7

2023-07-13 20:21:32 #01111                24.7  5.0    ?  1479 296.7  10.0
2023-07-13 20:24:35 #01111                98.8 32.2    ?   514 297.4   9.7
2023-07-13 20:27:35 #01111               172.3  5.1    ?  1460 298.0   9.4

2023-07-13 21:51:22 #01111               354.8  5.0    ?  1480 315.6   1.3
2023-07-13 21:54:01 #01111               298.1 16.6    ?   842 316.2   1.1
2023-07-13 21:56:38 #01111               241.5  5.1    ?  1465 316.7   0.9

2023-07-14 06:39:20 #01111               134.3  5.1    ?  1476  73.0  15.4
2023-07-14 06:42:16 #01111                66.3 26.1    ?   611  73.6  15.8
2023-07-14 06:45:13 #01111               358.3  5.1    ?  1484  74.2  16.1

2023-07-14 08:09:07 #01111               203.8  5.1    ?  1475  92.0  26.5
2023-07-14 08:11:54 #01111               265.5 19.3    ?   764  92.6  26.8
2023-07-14 08:14:43 #01111               327.7  5.0    ?  1487  93.2  27.1

2023-07-14 20:26:29 #01111                22.9  5.0    ?  1481 297.7   9.4
2023-07-14 20:29:34 #01111                99.0 37.5    ?   457 298.3   9.0
2023-07-14 20:32:38 #01111               176.3  5.0    ?  1466 298.9   8.7

2023-07-14 21:56:25 #01111               352.8  5.1    ?  1477 316.6   0.8
2023-07-14 21:58:58 #01111               299.0 15.0    ?   901 317.2   0.6
2023-07-14 22:01:30 #01111               245.4  5.0    ?  1470 317.7   0.4

2023-07-15 06:44:14 #01111               138.1  5.0    ?  1479  74.1  15.9
2023-07-15 06:47:14 #01111                67.0 29.6    ?   554  74.7  16.2
2023-07-15 06:50:14 #01111               356.6  5.0    ?  1485  75.3  16.6

2023-07-15 08:14:13 #01111               208.1  5.1    ?  1475  93.2  26.9
2023-07-15 08:16:55 #01111               266.9 17.1    ?   830  93.8  27.3
2023-07-15 08:19:38 #01111               325.5  5.0    ?  1485  94.4  27.6

2023-07-15 20:31:27 #01111                21.2  5.0    ?  1477 298.6   8.7
2023-07-15 20:34:34 #01111               100.8 44.0    ?   406 299.2   8.4
2023-07-15 20:37:39 #01111               180.1  5.1    ?  1463 299.9   8.0

2023-07-15 22:01:27 #01111               351.0  5.0    ?  1481 317.6   0.3
2023-07-15 22:03:54 #01111               300.3 13.5    ?   960 318.2   0.1
2023-07-15 22:06:20 #01111               249.6  5.0    ?  1469 318.7  -0.6

2023-07-16 06:49:09 #01111               141.8  5.0    ?  1477  75.2  16.3
2023-07-16 06:52:11 #01111                68.6 33.8    ?   499  75.8  16.7
2023-07-16 06:55:14 #01111               355.1  5.0    ?  1483  76.4  17.0

2023-07-16 08:19:20 #01111               212.6  5.0    ?  1474  94.4  27.4
2023-07-16 08:21:55 #01111               267.6 15.2    ?   896  94.9  27.8
2023-07-16 08:24:32 #01111               323.2  5.0    ?  1483  95.5  28.1

2023-07-16 20:36:25 #01111                19.5  5.1    ?  1475 299.5   8.0
2023-07-16 20:39:33 #01111               101.7 52.3    ?   360 300.2   7.7
2023-07-16 20:42:40 #01111               184.0  5.0    ?  1466 300.8   7.4

2023-07-16 22:06:30 #01111               349.0  5.0    ?  1481 318.6  -0.8
2023-07-16 22:08:50 #01111               301.5 12.2    ?  1018 319.2  -1.0
2023-07-16 22:11:10 #01111               253.7  5.0    ?  1473 319.7  -1.2

2023-07-17 06:54:05 #01111               145.5  5.1    ?  1472  76.3  16.7
2023-07-17 06:57:09 #01111                69.2 39.0    ?   446  76.9  17.1
2023-07-17 07:00:14 #01111               353.5  5.0    ?  1483  77.6  17.5

2023-07-17 08:24:28 #01111               217.3  5.0    ?  1472  95.6  27.9
2023-07-17 08:26:56 #01111               268.9 13.5    ?   964  96.1  28.2
2023-07-17 08:29:25 #01111               320.6  5.1    ?  1479  96.7  28.5

2023-07-17 19:13:46 #01111                72.2  5.0    ?  1477 282.3  17.5
2023-07-17 19:14:22 #01111                83.3  5.3    ?  1452 282.4  17.4
2023-07-17 19:14:57 #01111                94.0  5.0    ?  1474 282.6  17.3

2023-07-17 20:41:22 #01111                17.8  5.0    ?  1481 300.5   7.4
2023-07-17 20:44:32 #01111               103.1 62.5    ?   323 301.1   7.0
2023-07-17 20:47:40 #01111               187.8  5.0    ?  1467 301.8   6.7

2023-07-17 22:11:34 #01111               346.7  5.0    ?  1479 319.7  -1.4
2023-07-17 22:13:46 #01111               302.6 11.1    ?  1076 320.2  -1.5
2023-07-17 22:15:58 #01111               258.2  5.0    ?  1472 320.6  -1.7

2023-07-18 05:32:14 #01111                67.8  5.0    ?  1480  59.4   7.2
2023-07-18 05:33:10 #01111                50.6  5.8    ?  1419  59.6   7.3
2023-07-18 05:34:05 #01111                33.7  5.0    ?  1482  59.8   7.4

2023-07-18 06:59:01 #01111               149.2  5.1    ?  1470  77.4  17.2
2023-07-18 07:02:06 #01111                71.3 45.6    ?   398  78.0  17.6
2023-07-18 07:05:13 #01111               351.9  5.1    ?  1479  78.7  17.9

2023-07-18 08:29:37 #01111               222.2  5.0    ?  1472  96.8  28.4
2023-07-18 08:31:57 #01111               270.1 12.0    ?  1031  97.4  28.7
2023-07-18 08:34:18 #01111               318.0  5.0    ?  1481  97.9  29.0

2023-07-18 19:18:14 #01111                62.7  5.0    ?  1480 283.1  16.8
2023-07-18 19:19:24 #01111                84.4  6.2    ?  1383 283.4  16.6
2023-07-18 19:20:33 #01111               105.9  5.0    ?  1475 283.6  16.5

2023-07-18 20:46:20 #01111                16.2  5.0    ?  1481 301.4   6.7
2023-07-18 20:49:30 #01111               101.1 74.7    ?   299 302.1   6.4
2023-07-18 20:52:39 #01111               191.6  5.1    ?  1466 302.7   6.0

2023-07-18 22:16:38 #01111               344.4  5.0    ?  1480 320.7  -1.9
2023-07-18 22:18:42 #01111               303.5 10.0    ?  1134 321.2  -2.1
2023-07-18 22:20:46 #01111               262.6  5.0    ?  1476 321.6  -2.3

2023-07-19 05:36:50 #01111                75.1  5.0    ?  1477  60.4   7.5
2023-07-19 05:38:04 #01111                52.0  6.5    ?  1365  60.7   7.7
2023-07-19 05:39:19 #01111                28.7  5.0    ?  1480  60.9   7.8

2023-07-19 07:03:57 #01111               153.0  5.0    ?  1471  78.5  17.6
2023-07-19 07:07:04 #01111                71.9 53.8    ?   355  79.1  18.0
2023-07-19 07:10:12 #01111               350.4  5.1    ?  1477  79.8  18.4

2023-07-19 08:34:47 #01111               227.3  5.0    ?  1472  98.1  28.9
2023-07-19 08:36:58 #01111               271.2 10.6    ?  1100  98.6  29.2
2023-07-19 08:39:09 #01111               315.0  5.0    ?  1479  99.1  29.4

2023-07-19 19:22:55 #01111                56.9  5.0    ?  1479 284.0  16.1
2023-07-19 19:24:25 #01111                85.3  7.1    ?  1314 284.3  15.9
2023-07-19 19:25:55 #01111               113.9  5.0    ?  1474 284.6  15.7

2023-07-19 20:51:18 #01111                14.6  5.0    ?  1482 302.3   6.0
2023-07-19 20:54:29 #01111               116.3 88.3    ?   289 303.0   5.7
2023-07-19 20:57:38 #01111               195.3  5.0    ?  1470 303.7   5.4

2023-07-19 22:21:43 #01111               341.8  5.0    ?  1479 321.8  -2.5
2023-07-19 22:23:37 #01111               304.8  9.1    ?  1191 322.2  -2.6
2023-07-19 22:25:32 #01111               267.3  5.0    ?  1476 322.6  -2.8

2023-07-20 05:41:30 #01111                81.2  5.0    ?  1475  61.5   7.9
2023-07-20 05:42:59 #01111                53.1  7.2    ?  1310  61.8   8.0
2023-07-20 05:44:29 #01111                24.7  5.0    ?  1480  62.1   8.2

2023-07-20 07:08:54 #01111               156.7  5.0    ?  1468  79.6  18.1
2023-07-20 07:12:02 #01111                72.2 64.0    ?   320  80.3  18.4
2023-07-20 07:15:11 #01111               348.8  5.1    ?  1478  80.9  18.8

2023-07-20 08:39:59 #01111               232.8  5.0    ?  1471  99.4  29.4
2023-07-20 08:41:59 #01111               272.4  9.4    ?  1168  99.8  29.6
2023-07-20 08:43:59 #01111               311.7  5.0    ?  1478 100.3  29.9

2023-07-20 19:27:40 #01111                52.4  5.0    ?  1481 284.9  15.3
2023-07-20 19:29:26 #01111                86.4  8.2    ?  1246 285.2  15.1
2023-07-20 19:31:12 #01111               120.6  5.0    ?  1473 285.6  14.9

2023-07-20 20:56:16 #01111                13.0  5.0    ?  1484 303.3   5.4
2023-07-20 20:59:27 #01111               284.7 77.9    ?   296 304.0   5.0
2023-07-20 21:02:36 #01111               199.1  5.0    ?  1472 304.6   4.7

2023-07-20 22:26:48 #01111               339.2  5.0    ?  1483 322.8  -3.1
2023-07-20 22:28:33 #01111               305.6  8.2    ?  1247 323.2  -3.2
2023-07-20 22:30:17 #01111               272.3  5.0    ?  1479 323.6  -3.3

2023-07-21 05:46:12 #01111                86.9  5.0    ?  1476  62.5   8.2
2023-07-21 05:47:54 #01111                54.2  8.0    ?  1254  62.9   8.4
2023-07-21 05:49:37 #01111                21.3  5.0    ?  1482  63.2   8.6

2023-07-21 07:13:51 #01111               160.4  5.0    ?  1468  80.7  18.5
2023-07-21 07:17:00 #01111                71.3 76.2    ?   297  81.4  18.9
2023-07-21 07:20:10 #01111               347.2  5.0    ?  1482  82.1  19.3

2023-07-21 08:45:13 #01111               238.8  5.0    ?  1469 100.7  29.8
2023-07-21 08:47:00 #01111               273.5  8.3    ?  1236 101.1  30.1
2023-07-21 08:48:47 #01111               308.0  5.0    ?  1477 101.5  30.3

2023-07-21 19:32:28 #01111                48.6  5.0    ?  1481 285.8  14.6
2023-07-21 19:34:27 #01111                87.5  9.3    ?  1177 286.2  14.4
2023-07-21 19:36:26 #01111               126.6  5.1    ?  1473 286.6  14.1

2023-07-21 21:01:15 #01111                11.4  5.1    ?  1480 304.2   4.7
2023-07-21 21:04:25 #01111               285.6 65.5    ?   317 304.9   4.4
2023-07-21 21:07:33 #01111               202.8  5.1    ?  1471 305.6   4.1

2023-07-21 22:31:55 #01111               336.0  5.0    ?  1483 323.9  -3.6
2023-07-21 22:33:27 #01111               307.0  7.4    ?  1303 324.2  -3.7
2023-07-21 22:35:00 #01111               277.6  5.0    ?  1481 324.6  -3.8

2023-07-22 05:50:57 #01111                91.8  5.0    ?  1471  63.6   8.6
2023-07-22 05:52:49 #01111                55.3  8.9    ?  1198  64.0   8.8
2023-07-22 05:54:42 #01111                18.6  5.0    ?  1478  64.4   9.0

2023-07-22 07:18:49 #01111               164.2  5.1    ?  1464  81.9  18.9
2023-07-22 07:21:57 #01111               146.6 89.3    ?   288  82.5  19.3
2023-07-22 07:25:08 #01111               345.6  5.0    ?  1481  83.2  19.7

2023-07-22 08:50:29 #01111               245.3  5.0    ?  1472 102.0  30.3
2023-07-22 08:52:01 #01111               274.6  7.2    ?  1305 102.3  30.5
2023-07-22 08:53:32 #01111               303.4  5.0    ?  1475 102.7  30.7

2023-07-22 19:37:17 #01111                45.2  5.0    ?  1484 286.6  13.9
2023-07-22 19:39:28 #01111                88.7 10.5    ?  1109 287.1  13.6
2023-07-22 19:41:38 #01111               132.1  5.0    ?  1475 287.5  13.3

2023-07-22 21:06:13 #01111                 9.9  5.0    ?  1484 305.2   4.0
2023-07-22 21:09:22 #01111               288.2 55.1    ?   350 305.9   3.7
2023-07-22 21:12:30 #01111               206.5  5.0    ?  1476 306.5   3.4

2023-07-22 22:37:04 #01111               332.3  5.0    ?  1484 324.9  -4.2
2023-07-22 22:38:22 #01111               308.0  6.6    ?  1358 325.2  -4.3
2023-07-22 22:39:40 #01111               283.7  5.0    ?  1481 325.5  -4.4

2023-07-23 05:55:42 #01111                96.7  5.0    ?  1473  64.7   8.9
2023-07-23 05:57:44 #01111                56.4  9.9    ?  1141  65.1   9.1
2023-07-23 05:59:47 #01111                15.9  5.0    ?  1480  65.5   9.4

2023-07-23 07:23:47 #01111               167.9  5.0    ?  1464  83.0  19.4
2023-07-23 07:26:55 #01111               254.2 76.5    ?   296  83.7  19.8
2023-07-23 07:30:05 #01111               344.0  5.1    ?  1475  84.4  20.2

2023-07-23 08:55:50 #01111               253.2  5.0    ?  1472 103.3  30.8
2023-07-23 08:57:02 #01111               275.7  6.3    ?  1374 103.6  30.9
2023-07-23 08:58:13 #01111               297.8  5.0    ?  1475 103.9  31.1

2023-07-23 19:42:08 #01111                42.3  5.0    ?  1483 287.5  13.1
2023-07-23 19:44:28 #01111                89.7 11.9    ?  1041 288.0  12.8
2023-07-23 19:46:48 #01111               137.3  5.0    ?  1477 288.5  12.6

2023-07-23 21:11:12 #01111                 8.3  5.1    ?  1481 306.2   3.4
2023-07-23 21:14:19 #01111               289.6 46.7    ?   392 306.8   3.1
2023-07-23 21:17:26 #01111               210.2  5.0    ?  1478 307.5   2.8

2023-07-23 22:42:16 #01111               327.6  5.0    ?  1487 326.0  -4.7
2023-07-23 22:43:17 #01111               308.9  5.9    ?  1412 326.3  -4.8
2023-07-23 22:44:17 #01111               290.5  5.0    ?  1485 326.5  -4.9

2023-07-24 06:00:29 #01111               101.1  5.0    ?  1470  65.8   9.3
2023-07-24 06:02:39 #01111                57.5 10.9    ?  1084  66.2   9.5
2023-07-24 06:04:50 #01111                13.7  5.1    ?  1477  66.7   9.8

2023-07-24 07:28:46 #01111               171.7  5.1    ?  1460  84.2  19.8
2023-07-24 07:31:53 #01111               256.5 64.0    ?   319  84.9  20.2
2023-07-24 07:35:03 #01111               342.4  5.0    ?  1480  85.5  20.6

2023-07-24 09:01:22 #01111               264.1  5.0    ?  1473 104.8  31.3
2023-07-24 09:02:03 #01111               276.7  5.4    ?  1442 104.9  31.4
2023-07-24 09:02:44 #01111               289.3  5.0    ?  1476 105.1  31.4

2023-07-24 19:47:00 #01111                39.7  5.1    ?  1483 288.4  12.4
2023-07-24 19:49:28 #01111                90.7 13.4    ?   973 288.9  12.1
2023-07-24 19:51:57 #01111               142.3  5.0    ?  1481 289.5  11.8

2023-07-24 21:16:10 #01111                 6.8  5.0    ?  1487 307.1   2.7
2023-07-24 21:19:16 #01111               290.5 40.0    ?   440 307.8   2.4
2023-07-24 21:22:21 #01111               213.9  5.1    ?  1478 308.4   2.1

2023-07-24 22:47:38 #01111               320.1  5.0    ?  1487 327.2  -5.3
2023-07-24 22:48:11 #01111               310.1  5.3    ?  1466 327.3  -5.3
2023-07-24 22:48:44 #01111               300.1  5.0    ?  1487 327.4  -5.4

2023-07-25 06:05:16 #01111               105.6  5.0    ?  1471  66.9   9.6
2023-07-25 06:07:34 #01111                58.6 12.0    ?  1026  67.3   9.9
2023-07-25 06:09:53 #01111                11.4  5.0    ?  1478  67.8  10.2

2023-07-25 07:33:45 #01111               175.5  5.1    ?  1459  85.4  20.3
2023-07-25 07:36:51 #01111               257.8 53.5    ?   354  86.0  20.6
2023-07-25 07:40:00 #01111               340.7  5.0    ?  1480  86.7  21.0

2023-07-25 19:51:52 #01111                37.1  5.0    ?  1486 289.3  11.6
2023-07-25 19:54:28 #01111                91.9 15.0    ?   906 289.9  11.3
2023-07-25 19:57:04 #01111               147.0  5.0    ?  1482 290.4  11.0

2023-07-25 21:21:09 #01111                 5.2  5.0    ?  1487 308.1   2.1
2023-07-25 21:24:13 #01111               291.2 34.6    ?   492 308.7   1.8
2023-07-25 21:27:16 #01111               217.6  5.0    ?  1482 309.4   1.5

2023-07-26 06:10:05 #01111               109.7  5.1    ?  1466  68.0  10.0
2023-07-26 06:12:30 #01111                59.3 13.3    ?   968  68.5  10.3
2023-07-26 06:14:55 #01111                 9.4  5.1    ?  1478  69.0  10.6

2023-07-26 07:38:44 #01111               179.3  5.0    ?  1462  86.6  20.7
2023-07-26 07:41:49 #01111               259.0 45.1    ?   398  87.2  21.1
2023-07-26 07:44:56 #01111               339.0  5.1    ?  1475  87.9  21.5

2023-07-26 19:56:45 #01111                34.8  5.0    ?  1487 290.2  10.8
2023-07-26 19:59:28 #01111                93.3 16.9    ?   840 290.8  10.5
2023-07-26 20:02:10 #01111               151.5  5.0    ?  1484 291.4  10.2

2023-07-26 21:26:08 #01111                 3.6  5.0    ?  1487 309.1   1.4
2023-07-26 21:29:09 #01111               292.6 30.3    ?   547 309.7   1.2
2023-07-26 21:32:10 #01111               221.3  5.0    ?  1485 310.4   0.9

2023-07-27 06:14:54 #01111               113.9  5.1    ?  1465  69.1  10.4
2023-07-27 06:17:25 #01111                60.4 14.7    ?   910  69.6  10.6
2023-07-27 06:19:57 #01111                 7.3  5.0    ?  1481  70.1  10.9

2023-07-27 07:43:44 #01111               183.2  5.0    ?  1461  87.8  21.1
2023-07-27 07:46:47 #01111               260.0 38.3    ?   449  88.4  21.5
2023-07-27 07:49:53 #01111               337.3  5.0    ?  1481  89.1  21.9

2023-07-27 20:01:38 #01111                32.5  5.0    ?  1491 291.1  10.1
2023-07-27 20:04:27 #01111                94.3 19.1    ?   774 291.7   9.8
2023-07-27 20:07:15 #01111               155.8  5.0    ?  1486 292.3   9.4

2023-07-27 21:31:07 #01111                 2.0  5.0    ?  1489 310.1   0.8
2023-07-27 21:34:05 #01111               293.8 26.7    ?   603 310.7   0.6
2023-07-27 21:37:03 #01111               225.0  5.0    ?  1485 311.3   0.3

2023-07-28 06:19:43 #01111               118.0  5.0    ?  1467  70.2  10.7
2023-07-28 06:22:20 #01111                61.6 16.3    ?   851  70.8  11.0
2023-07-28 06:24:58 #01111                 5.4  5.0    ?  1482  71.3  11.3

2023-07-28 07:48:45 #01111               187.2  5.1    ?  1458  89.0  21.6
2023-07-28 07:51:45 #01111               261.0 32.9    ?   505  89.6  21.9
2023-07-28 07:54:48 #01111               335.5  5.1    ?  1476  90.3  22.3

2023-07-28 20:06:32 #01111                30.4  5.0    ?  1492 292.1   9.3
2023-07-28 20:09:26 #01111                95.5 21.6    ?   710 292.7   9.0
2023-07-28 20:12:19 #01111               160.1  5.0    ?  1489 293.3   8.7

2023-07-28 21:36:06 #01111                 0.4  5.0    ?  1492 311.0   0.2
2023-07-28 21:39:01 #01111               294.7 23.8    ?   661 311.7   0.0
2023-07-28 21:41:56 #01111               228.7  5.0    ?  1489 312.3  -0.8

2023-07-29 06:24:33 #01111               122.0  5.0    ?  1467  71.3  11.1
2023-07-29 06:27:15 #01111                62.7 18.1    ?   792  71.9  11.4
2023-07-29 06:29:58 #01111                 3.7  5.1    ?  1480  72.5  11.7

2023-07-29 07:53:46 #01111               191.1  5.1    ?  1458  90.2  22.0
2023-07-29 07:56:44 #01111               262.9 28.6    ?   564  90.8  22.4
2023-07-29 07:59:44 #01111               333.8  5.0    ?  1481  91.5  22.7

2023-07-29 20:11:26 #01111                28.4  5.0    ?  1495 293.0   8.6
2023-07-29 20:14:24 #01111                96.1 24.5    ?   647 293.6   8.2
2023-07-29 20:17:21 #01111               164.1  5.1    ?  1484 294.2   7.9

